     2.11           OBSERVATION DATA    G (GPS)             RINEX VERSION / TYPE
teqc  2015Jun23                         20151003 10:08:36UTCPGM / RUN BY / DATE
Linux2.6.32-279.el6.x86_64|x86_64|gcc|Win64-MinGW64|=       COMMENT
BIT 2 OF LLI FLAGS DATA COLLECTED UNDER A/S CONDITION       COMMENT
-Unknown-                                                   MARKER NAME
-Unknown-           -Unknown-                               OBSERVER / AGENCY
-Unknown-           -Unknown-           -Unknown-           REC # / TYPE / VERS
-Unknown-           -Unknown-                               ANT # / TYPE
        0.0000        0.0000        0.0000                  APPROX POSITION XYZ
        0.0000        0.0000        0.0000                  ANTENNA: DELTA H/E/N
     1     1                                                WAVELENGTH FACT L1/2
     7    L1    L2    C1    P1    P2    S1    S2            # / TYPES OF OBSERV
 SNR is mapped to RINEX snr flag value [0-9]                COMMENT
  L1 & L2: min(max(int(snr_dBHz/6), 0), 9)                  COMMENT
  2015     7     9     6     0    0.0000000     GPS         TIME OF FIRST OBS
                                                            END OF HEADER
 15  7  9  6  0  0.0000000  0  9G13G15G17G20G24G30G28G18G05
 105725768.238 8  82383700.17047  20118944.770                    20118941.0534
        50.500          42.3004
 113009973.732 8  88059715.40446  21505080.763                    21505077.6764
        48.400          38.2004
 124080761.973 7  96686320.05744  23611780.598                    23611780.4054
        43.600          28.1004
 118713757.576 7  92504214.26645  22590478.209                    22590477.4694
        43.600          31.0004
 128752159.256 6 100326380.36643  24500720.915                    24500724.1294
        37.600          22.0004
 118136123.293 7  92054118.23145  22480559.906                    22480560.9684
        47.000          34.1004
 110595313.019 8  86178152.93846  21045588.904                    21045584.6874
        51.200          39.7004
 133464507.647 6 103998317.80342  25397451.253                    25397449.4384
        36.500          16.9004
 124194402.472 7  96774842.97845  23633414.692                    23633413.5514
        46.300          30.7004
 15  7  9  6  0 15.0000000  0  9G13G15G17G20G24G30G28G18G05
 105722524.525 8  82381172.60047  20118327.421                    20118323.8004
        51.100          42.6004
 112979518.429 8  88035984.01346  21499285.604                    21499281.9394
        48.800          38.2004
 124036705.960 7  96651990.74344  23603397.576                    23603396.7724
        43.000          27.5004
 118731767.311 7  92518247.79645  22593905.160                    22593904.5034
        43.900          30.5004
 128706763.771 6 100291007.31043  24492082.843                    24492085.7394
        37.200          22.3004
 118174148.148 7  92083747.95845  22487795.690                    22487796.5474
        46.900          34.4004
 110615105.928 8  86193575.98246  21049355.479                    21049351.2764
        51.700          40.2004
 133430276.510 6 103971644.24243  25390937.555                    25390935.9204
        37.100          18.3004
 124242995.440 7  96812707.54445  23642660.927                    23642660.8094
        45.400          30.2004
 15  7  9  6  0 30.0000000  0  9G13G15G17G20G24G30G28G18G05
 105719410.605 8  82378746.16447  20117734.877                    20117731.4484
        51.000          42.1004
 112949161.946 8  88012329.62546  21493509.102                    21493506.4444
        49.800          39.5004
 123992699.929 7  96617700.40544  23595023.135                    23595022.9164
        42.400          26.5004
 118749905.348 7  92532381.30545  22597356.894                    22597356.1264
        44.000          31.1004
 128661382.989 6 100255645.65143  24483446.922                    24483449.8384
        36.700          22.2004
 118212210.644 7  92113407.02545  22495039.010                    22495039.8474
        47.800          34.9004
 110635001.220 8  86209078.79946  21053141.062                    21053137.1494
        51.700          40.2004
 133396130.343 6 103945036.86742  25384438.124                    25384437.9344
        36.700          17.4004
 124291626.538 7  96850601.83945  23651915.701                    23651914.8664
        45.900          30.9004
 15  7  9  6  0 45.0000000  0  9G13G15G17G20G24G30G28G18G05
 105716428.084 8  82376422.13447  20117167.421                    20117163.9664
        50.700          43.0004
 112918905.914 8  87988753.50446  21487751.399                    21487749.6414
        49.900          40.6004
 123948745.527 6  96583450.29144  23586659.180                    23586658.9704
        41.500          26.9004
 118768172.647 7  92546615.52445  22600833.480                    22600832.4784
        45.200          30.9004
 128616018.518 6 100220296.78543  24474814.816                    24474816.7484
        38.500          22.6004
 118250312.076 7  92143096.43845  22502289.658                    22502289.8244
        46.900          34.2004
 110655000.026 8  86224662.28946  21056946.988                    21056942.5824
        51.000          40.1004
 133362070.864 6 103918496.95642  25377957.413                    25377956.9014
        38.900          16.9004
 124340296.762 7  96888526.60544  23661177.029                    23661176.1544
        46.300          29.5004
 15  7  9  6  1  0.0000000  0  9G13G15G17G20G24G30G28G18G05
 105713575.340 8  82374199.21147  20116624.448                    20116621.1024
        51.100          42.3004
 112888748.822 8  87965254.49146  21482012.908                    21482011.6894
        49.100          39.8004
 123904841.405 6  96549239.33744  23578304.354                    23578303.7454
        41.700          27.9004
 118786567.391 7  92560949.06945  22604333.887                    22604333.1824
        44.800          31.7004
 128570667.994 6 100184958.73643  24466184.306                    24466186.8974
        36.000          22.0004
 118288450.560 7  92172814.71245  22509546.544                    22509547.0234
        47.100          33.4004
 110675100.642 8  86240325.11146  21060771.717                    21060767.9154
        51.100          39.9004
 133328096.455 6 103892023.37542  25371491.753                    25371492.0654
        37.300          16.3004
 124389003.876 7  96926480.12745  23670445.987                    23670445.0384
        46.600          31.0004
 15  7  9  6  1 15.0000000  0  9G13G15G17G20G24G30G28G18G05
 105710853.150 8  82372078.01747  20116106.267                    20116103.1554
        51.300          42.3004
 112858691.750 8  87941833.43346  21476292.875                    21476290.5894
        49.000          38.9004
 123860988.534 7  96515068.32944  23569959.654                    23569958.9574
        42.600          29.1004
 118805090.071 7  92575382.30445  22607858.533                    22607857.5284
        45.100          31.5004
 128525332.849 6 100149632.72143  24457557.555                    24457560.1684
        38.300          22.2004
 118326626.803 7  92202562.39945  22516811.161                    22516812.1564
        46.600          34.2004
 110695302.919 8  86256067.15246  21064616.327                    21064612.4204
        51.700          40.5004
 133294208.041 6 103865616.78342  25365043.248                    25365043.5634
        37.500          15.6004
 124437748.122 7  96964462.58044  23679721.799                    23679720.8344
        46.000          29.9004
 15  7  9  6  1 30.0000000  0  9G13G15G17G20G24G30G28G18G05
 105708261.617 8  82370058.63947  20115613.437                    20115610.5694
        50.700          42.6004
 112828734.808 8  87918490.38046  21470592.286                    21470589.0024
        48.600          38.9004
 123817187.175 7  96480937.45944  23561624.242                    23561623.9164
        42.500          27.2004
 118823740.258 7  92589914.89845  22611407.239                    22611406.8544
        46.700          31.8004
 128480012.726 6 100114318.37143  24448933.079                    24448936.0464
        36.200          21.1004
 118364840.605 7  92232339.35645  22524083.797                    22524085.0454
        47.500          34.8004
 110715606.744 8  86271888.32746  21068479.580                    21068476.2704
        51.300          40.4004
 133260405.754 6 103839277.35042  25358611.279                    25358611.4524
        37.200          14.8004
 124486529.209 7  97002473.75445  23689004.664                    23689003.7764
        47.000          30.5004
 15  7  9  6  1 45.0000000  0  9G13G15G17G20G24G30G28G18G05
 105705800.663 8  82368141.02447  20115144.671                    20115141.8874
        50.300          42.1004
 112798878.029 8  87895225.35546  21464910.776                    21464907.6914
        49.500          39.6004
 123773437.438 7  96446846.80144  23553298.988                    23553298.2814
        42.700          28.6004
 118842517.607 7  92604546.57245  22614981.159                    22614980.2164
        46.500          32.0004
 128434707.555 6 100079015.67843  24440311.584                    24440315.1424
        36.800          20.9004
 118403091.681 7  92262145.35645  22531362.268                    22531363.6274
        47.300          34.7004
 110736011.760 8  86287788.33946  21072362.493                    21072359.2094
        51.100          40.4004
 133226689.728 6 103813005.12342  25352196.457                    25352195.7694
        38.600          16.3004
 124535346.734 7  97040513.30745  23698294.461                    23698293.8454
        47.000          30.8004
 15  7  9  6  2  0.0000000  0  9G13G15G17G20G24G30G28G18G05
 105703470.031 8  82366324.96047  20114701.151                    20114698.0274
        49.800          42.6004
 112769121.394 8  87872038.36146  21459248.439                    21459246.4694
        48.900          40.0004
 123729739.652 7  96412796.62644  23544983.424                    23544982.9544
        42.400          27.7004
 118861421.479 7  92619276.83445  22618578.180                    22618576.6804
        47.600          31.2004
 128389417.313 5 100043724.59443  24431692.955                    24431696.6414
        34.300          21.1004
 118441379.591 7  92291980.06745  22538648.106                    22538649.8384
        46.300          34.5004
 110756517.490 8  86303766.82746  21076264.748                    21076261.3384
        51.000          40.5004
 133193060.006 6 103786800.11942  25345796.845                    25345795.6154
        39.700          16.3004
 124584199.902 7  97078580.62945  23707591.032                    23707589.8004
        46.700          30.5004
 15  7  9  6  2 15.0000000  0  9G13G15G17G20G24G30G28G18G05
 105701270.604 8  82364611.12047  20114282.804                    20114279.2244
        51.200          42.3004
 112739465.796 8  87848930.12646  21453604.442                    21453603.9564
        48.400          39.4004
 123686094.786 7  96378787.69344  23536678.271                    23536676.8284
        42.800          27.0004
 118880452.485 7  92634106.17045  22622199.898                    22622197.9844
        46.300          30.4004
 128344142.639 6 100008445.70043  24423076.977                    24423081.6654
        36.000          20.6004
 118479705.069 7  92321844.03545  22545941.404                    22545942.8464
        45.600          34.0004
 110777124.365 8  86319824.14246  21080186.250                    21080182.7104
        50.400          40.2004
 133159517.297 6 103760662.94642  25339413.979                    25339412.1554
        39.900          17.4004
 124633088.998 7  97116675.95744  23716894.157                    23716893.1824
        46.000          29.9004
 15  7  9  6  2 30.0000000  0  9G13G15G17G20G24G30G28G18G05
 105699201.433 8  82362998.77347  20113888.941                    20113886.2584
        51.300          42.1004
 112709910.564 8  87825900.10846  21447980.631                    21447979.2904
        48.400          39.8004
 123642502.056 7  96344819.39344  23528382.609                    23528382.2354
        43.700          28.1004
 118899609.350 7  92649033.59245  22625845.405                    22625843.0964
        46.300          30.0004
 128298882.452 6  99973178.08443  24414464.433                    24414468.8694
        36.200          20.9004
 118518066.938 7  92351736.35545  22553241.861                    22553243.0074
        46.500          34.3004
 110797831.154 8  86335959.30146  21084126.256                    21084123.4154
        50.400          40.5004
 133126060.833 6 103734593.01542  25333048.148                    25333045.3344
        40.900          17.8004
 124682012.631 7  97154798.18145  23726204.731                    23726203.7164
        46.400          30.4004
 15  7  9  6  2 45.0000000  0  9G13G15G17G20G24G30G28G18G05
 105697263.661 8  82361488.82447  20113520.366                    20113517.5064
        50.000          42.2004
 112680456.847 8  87802949.17446  21442376.134                    21442373.3634
        49.500          39.8004
 123598962.767 7  96310892.73644  23520097.523                    23520096.5214
        43.500          28.4004
 118918892.714 7  92664059.58744  22629515.039                    22629511.2744
        47.800          29.2004
 128253637.781 6  99937922.50243  24405854.599                    24405858.3054
        36.300          20.6004
 118556466.083 7  92381657.73645  22560548.735                    22560550.0254
        46.900          34.6004
 110818638.657 8  86352172.94446  21088086.009                    21088082.6424
        51.700          40.5004
 133092691.928 6 103708591.30642  25326697.679                    25326695.7614
        39.100          16.9004
 124730971.421 7  97192947.81844  23735520.851                    23735520.0784
        46.700          29.8004
 15  7  9  6  3  0.0000000  0  9G13G15G17G20G24G30G28G18G05
 105695457.406 8  82360081.34847  20113176.856                    20113173.2504
        49.900          42.2004
 112651104.893 8  87780077.51146  21436790.618                    21436786.9514
        49.900          39.3004
 123555477.448 7  96277008.12444  23511822.025                    23511821.5954
        42.900          29.3004
 118938302.310 7  92679183.95844  22633208.481                    22633203.2274
        47.500          28.2004
 128208408.694 6  99902679.11043  24397247.664                    24397251.3644
        38.300          21.7004
 118594902.449 7  92411608.10745  22567863.291                    22567864.1154
        47.600          34.6004
 110839546.697 8  86368464.92346  21092064.533                    21092061.0344
        50.400          40.2004
 133059410.793 6 103682657.94742  25320364.486                    25320362.2834
        39.200          17.8004
 124779965.154 7  97231124.66844  23744843.932                    23744844.0414
        45.500          29.6004
 15  7  9  6  3 15.0000000  0  9G13G15G17G20G24G30G28G18G05
 105693781.626 8  82358775.55047  20112858.064                    20112854.3024
        50.700          42.8004
 112621853.840 8  87757284.47546  21431224.251                    21431221.6704
        48.700          38.8004
 123512045.229 7  96243164.88844  23503557.671                    23503556.1324
        43.900          29.6004
 118957836.783 7  92694405.62444  22636925.996                    22636921.5914
        45.400          27.8004
 128163194.526 6  99867447.33943  24388643.724                    24388647.9954
        38.900          22.9004
 118633374.782 7  92441586.52345  22575184.806                    22575185.2344
        47.900          34.6004
 110860553.809 8  86384834.10346  21096062.475                    21096058.9874
        50.300          40.3004
 133026216.450 6 103656792.20942  25314046.921                    25314046.3394
        38.900          15.6004
 124828992.143 7  97269327.44844  23754172.968                    23754173.7554
        45.300          29.8004
 15  7  9  6  3 30.0000000  0  9G13G15G17G20G24G30G28G18G05
 105692237.911 8  82357572.66247  20112564.096                    20112560.8384
        50.100          42.3004
 112592705.454 8  87734571.46646  21425677.084                    21425675.1834
        48.200          39.3004
 123468668.181 7  96209364.64244  23495303.102                    23495302.2474
        44.000          28.7004
 118977497.478 7  92709725.65044  22640667.006                    22640663.2324
        44.300          27.3004
 128117996.444 6  99832228.10543  24380043.739                    24380047.0884
        38.700          22.8004
 118671884.520 7  92471594.09145  22582512.143                    22582513.3044
        47.200          34.7004
 110881661.350 8  86401281.53846  21100078.828                    21100075.4914
        49.600          40.9004
 132993110.926 6 103630995.68342  25307746.614                    25307746.5704
        38.200          16.9004
 124878053.565 7  97307557.03044  23763509.961                    23763509.6434
        44.800          29.8004
 15  7  9  6  3 45.0000000  0  9G13G15G17G20G24G30G28G18G05
 105690825.184 8  82356471.83647  20112295.379                    20112291.7494
        50.100          42.2004
 112563658.623 8  87711937.60146  21420149.928                    21420148.5004
        49.900          40.5004
 123425345.200 7  96175606.51944  23487058.613                    23487057.8134
        43.900          27.8004
 118997282.911 7  92725142.87044  22644431.716                    22644428.0604
        45.600          27.6004
 128072813.359 6  99797020.52643  24371444.418                    24371449.2254
        38.900          22.3004
 118710430.262 7  92501629.72945  22589847.002                    22589848.3454
        46.400          34.2004
 110902867.798 8  86417806.04246  21104114.300                    21104110.7064
        51.300          40.6004
 132960092.937 6 103605267.35242  25301463.226                    25301462.9184
        38.500          15.6004
 124927147.854 7  97345812.26344  23772851.791                    23772851.3714
        44.700          29.4004
 15  7  9  6  4  0.0000000  0  9G13G15G17G20G24G30G28G18G05
 105689544.746 8  82355474.09647  20112051.548                    20112048.1604
        51.200          42.3004
 112534715.018 8  87689384.14346  21414642.677                    21414640.4444
        50.800          41.0004
 123382077.918 7  96141891.81844  23478825.092                    23478824.0834
        42.800          28.7004
 119017194.004 7  92740657.99644  22648220.525                    22648217.9124
        46.500          28.3004
 128027646.503 6  99761825.65043  24362849.810                    24362854.5344
        37.700          22.8004
 118749013.176 7  92531694.30545  22597189.202                    22597190.5014
        46.000          33.3004
 110924174.065 8  86434408.32446  21108168.374                    21108164.9394
        51.300          40.2004
 132927164.062 6 103579608.43842  25295197.350                    25295196.7564
        37.700          15.6004
 124976275.650 7  97384093.59044  23782200.320                    23782200.7954
        44.600          28.4004
 15  7  9  6  4 15.0000000  0  9G13G15G17G20G24G30G28G18G05
 105688396.257 8  82354579.17947  20111832.810                    20111828.9964
        50.500          42.4004
 112505874.213 8  87666910.78546  21409154.285                    21409151.4714
        50.000          40.7004
 123338866.233 6  96108220.43044  23470601.991                    23470601.8254
        40.900          28.2004
 119037230.061 7  92756270.47744  22652033.120                    22652031.4364
        44.900          28.5004
 127982495.596 6  99726643.16943  24354258.473                    24354262.6834
        38.800          22.6004
 118787632.718 7  92561787.42345  22604538.204                    22604539.5724
        46.800          32.3004
 110945579.453 8  86451087.85146  21112241.936                    21112238.4674
        51.500          40.7004
 132894323.865 6 103554018.72742  25288948.189                    25288947.3384
        36.900          14.8004
 125025436.025 7  97422400.29644  23791555.274                    23791555.5684
        44.300          29.1004
 15  7  9  6  4 30.0000000  0  9G13G15G17G20G24G30G28G18G05
 105687380.143 8  82353787.39747  20111639.629                    20111635.9514
        50.100          42.1004
 112477136.780 8  87644517.98446  21403685.572                    21403682.0264
        49.500          39.3004
 123295710.787 7  96074592.88244  23462389.677                    23462389.5244
        43.100          28.6004
 119057391.041 7  92771980.31544  22655870.200                    22655867.4064
        45.100          28.5004
 127937360.905 6  99691473.33343  24345668.666                    24345673.6574
        38.600          22.6004
 118826289.016 7  92591909.17245  22611893.756                    22611896.4804
        45.500          32.5004
 110967083.983 8  86467844.62646  21116334.448                    21116330.8134
        51.500          40.6004
 132861572.908 6 103528498.56542  25282716.889                    25282714.0864
        37.300          15.6004
 125074629.165 7  97460732.51144  23800917.323                    23800917.0144
        45.000          29.5004
 15  7  9  6  4 45.0000000  0  9G13G15G17G20G24G30G28G18G05
 105686496.965 8  82353099.20847  20111471.370                    20111468.1664
        49.600          42.9004
 112448503.481 8  87622206.33846  21398236.471                    21398233.1234
        48.200          39.7004
 123252612.350 6  96041009.74044  23454188.621                    23454187.8504
        41.100          29.3004
 119077677.186 7  92787787.68044  22659729.880                    22659728.2034
        43.900          28.5004
 127892242.853 6  99656316.44243  24337083.735                    24337087.8444
        37.700          22.6004
 118864982.471 7  92622059.88845  22619257.100                    22619258.8444
        44.800          32.7004
 110988688.013 8  86484678.93446  21120445.115                    21120441.6434
        51.700          40.9004
 132828911.932 6 103503048.43742  25276501.427                    25276498.8444
        39.900          15.6004
 125123855.152 7  97499090.34644  23810283.920                    23810284.7284
        45.700          28.9004
 15  7  9  6  5  0.0000000  0  9G13G15G17G20G24G30G28G18G05
 105685744.541 8  82352512.91047  20111328.336                    20111324.6374
        48.300          42.4004
 112419972.341 8  87599974.27546  21392807.687                    21392804.9194
        50.800          40.3004
 123209569.134 7  96007469.62344  23445997.771                    23445997.2084
        42.700          29.4004
 119098086.103 7  92803690.69844  22663613.734                    22663612.9504
        42.600          28.8004
 127847139.302 6  99621170.88143  24328500.188                    24328504.6904
        36.600          22.3004
 118903710.806 7  92652237.78145  22626626.934                    22626628.0014
        44.900          32.3004
 111010389.124 8  86501588.88946  21124575.261                    21124571.6174
        50.300          40.9004
 132796339.169 6 103477667.04042  25270303.775                    25270299.7624
        40.400          16.9004
 125173111.362 7  97537471.71844  23819657.197                    23819657.7974
        45.300          28.9004
 15  7  9  6  5 15.0000000  0  9G13G15G17G20G24G30G28G18G05
 105685123.758 8  82352029.19047  20111210.340                    20111206.9094
        49.500          42.4004
 112391544.473 8  87577822.69246  21387398.381                    21387396.6004
        51.100          41.1004
 123166582.362 7  95973973.48344  23437817.364                    23437817.1674
        42.800          28.9004
 119118618.296 7  92819689.76744  22667520.851                    22667519.2564
        44.600          29.3004
 127802051.282 6  99586037.40543  24319921.535                    24319924.1444
        38.400          22.6004
 118942474.845 7  92682443.51145  22634003.264                    22634004.7834
        45.100          32.7004
 111032187.980 8  86518575.00446  21128723.116                    21128719.6184
        51.000          40.4004
 132763855.449 6 103452355.03042  25264122.327                    25264118.4294
        40.200          17.8004
 125222398.416 7  97575877.12944  23829036.093                    23829036.7984
        45.400          29.4004
 15  7  9  6  5 30.0000000  0  9G13G15G17G20G24G30G28G18G05
 105684635.306 8  82351648.56647  20111117.274                    20111114.0974
        50.200          42.2004
 112363220.463 8  87555752.03346  21382008.078                    21382006.5944
        49.500          40.3004
 123123652.735 7  95940521.87544  23429648.356                    23429647.6744
        43.000          29.2004
 119139274.039 7  92835785.10644  22671452.095                    22671450.1364
        43.700          29.2004
 127756979.214 6  99550916.40043  24311344.392                    24311346.8824
        37.200          22.8004
 118981274.749 7  92712677.18345  22641386.929                    22641387.8484
        44.100          32.3004
 111054084.620 8  86535637.31946  21132890.022                    21132886.1594
        50.700          40.7004
 132731461.376 6 103427112.87342  25257956.235                    25257955.1874
        36.800          16.3004
 125271716.148 7  97614306.45544  23838421.106                    23838421.8414
        46.300          29.3004
 15  7  9  6  5 45.0000000  0  9G13G15G17G20G24G30G28G18G05
 105684279.297 8  82351371.15747  20111049.358                    20111046.5474
        50.500          42.4004
 112335000.638 8  87533762.57846  21376637.425                    21376634.6184
        48.200          39.0004
 123080780.784 7  95907115.22144  23421490.075                    23421488.9684
        42.800          28.9004
 119160053.025 7  92851976.50545  22675406.325                    22675404.8824
        44.500          30.4004
 127711923.304 6  99515807.96144  24302770.282                    24302773.1304
        38.300          24.4004
 119020110.616 7  92742938.86445  22648777.179                    22648778.1124
        45.000          33.3004
 111076078.856 8  86552775.69046  21137075.374                    21137071.4214
        51.000          40.6004
 132699157.242 5 103401940.78742  25251809.379                    25251808.0414
        34.700          16.9004
 125321064.246 7  97652759.43445  23847812.036                    23847812.9174
        46.300          30.5004
 15  7  9  6  6  0.0000000  0  9G13G15G17G20G24G30G28G18G05
 105684056.100 8  82351197.23847  20111007.207                    20111004.0214
        51.000          42.9004
 112306885.548 8  87511854.73446  21371287.625                    21371284.4484
        49.800          38.4004
 123037967.079 7  95873753.93244  23413342.213                    23413342.0954
        42.800          29.1004
 119180955.383 7  92868264.02045  22679384.143                    22679382.4294
        46.300          30.6004
 127666883.792 6  99480712.29943  24294198.998                    24294202.2854
        39.400          22.8004
 119058982.655 7  92773228.73545  22656173.976                    22656175.6994
        46.100          33.2004
 111098170.872 8  86569990.23946  21141279.543                    21141275.6464
        51.100          40.4004
 132666943.752 6 103376839.39942  25245680.253                    25245678.1984
        36.000          16.9004
 125370442.749 7  97691236.11944  23857209.075                    23857209.7574
        46.300          29.5004
 15  7  9  6  6 15.0000000  0  9G13G15G17G20G24G30G28G18G05
 105683965.494 8  82351126.63747  20110990.092                    20110986.8704
        50.800          42.3004
 112278875.206 8  87490028.48146  21365957.943                    21365954.3664
        50.500          40.1004
 122995211.724 6  95840438.12944  23405206.023                    23405205.5104
        40.500          27.7004
 119201980.355 7  92884647.08945  22683385.233                    22683383.1404
        45.500          32.0004
 127621860.349 6  99445629.12243  24285631.580                    24285634.7774
        38.800          22.2004
 119097890.317 7  92803546.35245  22663579.128                    22663579.8924
        46.500          33.1004
 111120360.000 8  86587280.46846  21145501.807                    21145498.3054
        50.600          40.3004
 132634820.780 6 103351808.46542  25239567.494                    25239565.6674
        37.800          16.9004
 125419850.833 7  97729735.84844  23866610.847                    23866611.3824
        46.100          29.6004
 15  7  9  6  6 30.0000000  0  9G13G15G17G20G24G30G28G18G05
 105684007.429 8  82351159.31247  20110997.716                    20110994.5934
        50.000          42.0004
 112250969.579 8  87468283.82146  21360647.572                    21360645.6314
        50.500          40.5004
 122952514.789 6  95807167.84444  23397081.365                    23397080.4224
        41.600          27.3004
 119223127.680 7  92901125.52245  22687408.649                    22687407.5234
        47.200          32.7004
 127576853.137 6  99410558.63643  24277066.635                    24277070.3954
        38.300          23.2004
 119136833.421 7  92833891.59945  22670989.289                    22670990.6334
        46.100          34.2004
 111142645.816 8  86604646.04446  21149742.398                    21149739.2044
        51.000          40.0004
 132602788.332 6 103326848.11642  25233472.669                    25233471.0834
        38.400          17.4004
 125469287.929 7  97768258.18644  23876018.622                    23876018.7714
        46.000          29.6004
 15  7  9  6  6 45.0000000  0  9G13G15G17G20G24G30G28G18G05
 105684182.534 8  82351295.75746  20111031.020                    20111027.9884
        49.900          41.7004
 112223169.521 8  87446621.45746  21355356.829                    21355355.5064
        49.400          40.1004
 122909877.343 6  95773943.90444  23388967.990                    23388966.9674
        40.900          28.3004
 119244397.769 7  92917699.57545  22691456.653                    22691455.8934
        47.500          32.9004
 127531862.498 6  99375501.05643  24268505.359                    24268508.6674
        37.100          22.0004
 119175812.496 7  92864264.88045  22678407.108                    22678407.9454
        46.700          33.9004
 111165028.806 8  86622087.32746  21154001.516                    21153999.0654
        51.000          39.9004
 132570847.160 6 103301958.93142  25227393.451                    25227392.3134
        38.100          17.8004
 125518754.395 7  97806803.39844  23885431.418                    23885432.1044
        45.700          29.3004
 15  7  9  6  7  0.0000000  0  9G13G15G17G20G24G30G28G18G05
 105684490.146 8  82351535.45446  20111089.308                    20111086.5644
        49.900          41.3004
 112195474.377 8  87425040.87046  21350086.404                    21350084.4764
        49.000          39.1004
 122867298.808 7  95740765.87244  23380865.388                    23380864.1974
        42.500          28.9004
 119265789.295 7  92934368.26045  22695527.318                    22695526.4554
        47.900          33.2004
 127486887.933 6  99340455.94343  24259946.657                    24259949.9084
        37.000          22.8004
 119214826.630 7  92894665.47245  22685830.900                    22685832.1144
        47.600          33.6004
 111187507.793 8  86639603.40646  21158279.468                    21158276.4494
        50.700          40.3004
 132538996.781 6 103277140.48242  25221333.120                    25221331.7084
        38.100          16.9004
 125568249.001 7  97845370.54344  23894849.965                    23894850.7884
        46.100          29.4004
 15  7  9  6  7 15.0000000  0  9G13G15G17G20G24G30G28G18G05
 105684930.291 8  82351878.41947  20111173.367                    20111170.2574
        49.500          42.3004
 112167884.469 8  87403542.25846  21344836.882                    21344833.4494
        49.900          39.5004
 122824779.653 6  95707634.10844  23372774.545                    23372772.4604
        41.900          28.0004
 119287302.081 7  92951131.43145  22699621.385                    22699620.1924
        47.300          32.6004
 127441929.311 6  99305423.31843  24251391.786                    24251394.3954
        37.000          22.0004
 119253875.727 7  92925093.30545  22693261.832                    22693262.7214
        46.800          33.3004
 111210082.660 8  86657194.20646  21162575.195                    21162572.3464
        50.500          40.0004
 132507237.337 6 103252392.85742  25215289.440                    25215287.1664
        38.100          17.8004
 125617771.430 7  97883959.39744  23904274.527                    23904274.3744
        46.200          29.6004
 15  7  9  6  7 30.0000000  0  9G13G15G17G20G24G30G28G18G05
 105685504.031 7  82352325.49047  20111282.517                    20111279.6404
        47.900          42.4004
 112140401.078 8  87382126.60746  21339607.152                    21339603.1134
        50.300          39.8004
 122782321.210 6  95674549.66544  23364695.229                    23364693.4204
        40.600          29.1004
 119308936.805 8  92967989.63545  22703738.246                    22703736.5704
        48.300          31.9004
 127396987.667 6  99270403.90043  24242840.501                    24242841.6404
        38.700          22.8004
 119292960.614 7  92955549.03745  22700699.358                    22700700.5934
        46.000          33.2004
 111232754.039 8  86674860.20546  21166889.349                    21166886.5654
        50.700          39.9004
 132475570.011 6 103227717.00943  25209262.421                    25209260.8424
        38.700          18.3004
 125667322.184 7  97922570.28044  23913703.470                    23913703.7474
        46.000          29.6004
 15  7  9  6  7 45.0000000  0  9G13G15G17G20G24G30G28G18G05
 105686211.638 8  82352876.86947  20111417.279                    20111413.9754
        48.600          42.7004
 112113024.390 8  87360794.10846  21334397.344                    21334394.4704
        50.000          40.3004
 122739923.807 7  95641512.77244  23356626.491                    23356625.5124
        42.000          29.3004
 119330693.420 7  92984942.83345  22707878.276                    22707876.2184
        47.800          30.5004
 127352063.262 6  99235397.90743  24234290.816                    24234292.3814
        40.000          22.6004
 119332081.407 7  92986032.74145  22708143.973                    22708145.0384
        45.600          32.7004
 111255521.767 8  86692601.29446  21171221.974                    21171219.0724
        50.500          40.0004
 132443995.197 6 103203113.27442  25203253.599                    25203252.4114
        37.700          16.9004
 125716901.020 7  97961203.06344  23923138.088                    23923138.2424
        45.700          29.6004
 15  7  9  6  8  0.0000000  0  9G13G15G17G20G24G30G28G18G05
 105687052.550 8  82353532.12147  20111577.191                    20111573.6234
        49.900          42.8004
 112085754.010 8  87339544.47746  21329207.606                    21329206.0474
        49.200          40.1004
 122697587.271 6  95608523.31944  23348569.891                    23348568.9254
        41.300          28.1004
 119352570.995 8  93001990.25645  22712041.328                    22712039.2904
        48.200          31.6004
 127307155.665 6  99200405.06443  24225744.973                    24225746.6074
        39.100          22.0004
 119371237.329 7  93016543.82245  22715594.781                    22715596.2304
        46.100          32.2004
 111278385.010 8  86710416.79846  21175573.149                    21175569.5314
        50.600          40.1004
 132412512.348 6 103178581.11542  25197262.318                    25197261.3554
        36.200          16.9004
 125766506.864 7  97999856.89644  23932577.745                    23932577.9064
        45.600          28.7004
 15  7  9  6  8 15.0000000  0  9G13G15G17G20G24G30G28G18G05
 105688027.229 8  82354291.60847  20111762.830                    20111759.2044
        50.300          43.1004
 112058590.553 8  87318378.20046  21324038.129                    21324036.8754
        49.500          40.4004
 122655312.259 6  95575581.80144  23340525.397                    23340523.9594
        41.700          27.1004
 119374569.565 7  93019131.97845  22716227.353                    22716225.8014
        46.100          30.5004
 127262265.269 6  99165425.54443  24217201.741                    24217204.4224
        38.500          22.5004
 119410428.624 7  93047082.45645  22723053.008                    22723054.1404
        45.200          32.2004
 111301343.879 8  86728306.81246  21179941.578                    21179938.7154
        49.400          39.9004
 132381122.121 5 103154121.25942  25191290.375                    25191287.8154
        35.900          15.6004
 125816139.800 7  98038531.84444  23942023.346                    23942023.0394
        45.300          29.1004
 15  7  9  6  8 30.0000000  0  9G13G15G17G20G24G30G28G18G05
 105689135.174 8  82355154.94047  20111973.709                    20111970.0474
        50.200          42.6004
 112031533.751 8  87297295.00646  21318890.093                    21318887.9184
        50.000          40.9004
 122613098.593 6  95542688.08444  23332491.119                    23332490.6734
        41.300          27.4004
 119396688.326 7  93036367.36844  22720436.424                    22720435.1624
        42.200          29.6004
 127217391.530 6  99130459.07143  24208662.975                    24208665.4644
        39.000          22.2004
 119449654.689 7  93077648.17645  22730517.798                    22730518.5594
        44.000          32.2004
 111324397.574 8  86746270.72146  21184328.870                    21184325.5134
        48.800          40.2004
 132349824.111 6 103129733.19242  25185334.198                    25185332.4014
        37.300          16.9004
 125865798.944 7  98077227.21844  23951472.966                    23951473.2214
        45.800          29.3004
 15  7  9  6  8 45.0000000  0  9G13G15G17G20G24G30G28G18G05
 105690376.534 8  82356122.23147  20112209.821                    20112206.7574
        51.000          42.9004
 112004583.987 8  87276295.19246  21313761.869                    21313758.3654
        50.900          40.8004
 122570946.736 6  95509842.52644  23324470.892                    23324469.8564
        41.300          27.2004
 119418927.143 7  93053696.29144  22724668.381                    22724666.8034
        45.400          28.3004
 127172534.574 6  99095505.65143  24200126.749                    24200129.0024
        37.500          21.1004
 119488915.490 7  93108240.96845  22737988.468                    22737989.7264
        46.000          32.8004
 111347545.929 8  86764308.39046  21188733.860                    21188730.3964
        50.500          39.5004
 132318618.761 6 103105417.32642  25179395.150                    25179394.8864
        38.000          17.4004
 125915483.854 7  98115942.64944  23960927.109                    23960927.7004
        45.100          29.3004
 15  7  9  6  9  0.0000000  0  9G13G15G17G20G24G30G28G18G05
 105691751.812 8  82357193.87447  20112471.720                    20112468.0264
        50.300          42.6004
 111977741.849 8  87255379.23146  21308653.327                    21308650.3954
        49.200          40.1004
 122528857.464 7  95477045.72944  23316461.958                    23316461.3374
        42.400          27.7004
 119441286.104 7  93071118.86344  22728922.425                    22728920.7794
        46.500          28.3004
 127127694.707 6  99060565.51643  24191593.398                    24191595.8564
        38.100          21.5004
 119528211.353 7  93138861.08245  22745466.151                    22745467.4714
        46.400          34.2004
 111370789.249 8  86782420.05946  21193156.658                    21193153.5894
        50.600          39.6004
 132287506.676 6 103081174.14843  25173475.609                    25173475.4524
        38.400          18.3004
 125965194.568 7  98154678.21344  23970387.539                    23970386.7334
        46.000          28.6004
 15  7  9  6  9 15.0000000  0  9G13G15G17G20G24G30G28G18G05
 105693260.799 8  82358369.71347  20112758.703                    20112755.5804
        51.700          43.0004
 111951007.142 8  87234547.02046  21303565.976                    21303563.4284
        48.900          39.9004
 122486830.812 7  95444297.72744  23308463.744                    23308463.3944
        42.300          27.9004
 119463764.697 7  93088634.60044  22733201.066                    22733197.4994
        46.700          28.4004
 127082871.721 6  99025638.57443  24183064.623                    24183066.5854
        40.600          21.5004
 119567541.812 7  93169508.16845  22752950.994                    22752951.5434
        45.800          33.6004
 111394126.770 8  86800605.12846  21197597.588                    21197594.5934
        50.000          39.8004
 132256487.746 6 103057003.54143  25167572.408                    25167572.3134
        39.200          18.3004
 126014930.503 7  98193433.40744  23979851.642                    23979851.9824
        45.800          29.3004
 15  7  9  6  9 30.0000000  0  9G13G15G17G20G24G30G28G18G05
 105694903.694 8  82359649.88247  20113071.395                    20113067.8364
        51.000          42.7004
 111924380.347 8  87213798.90546  21298499.236                    21298496.9954
        49.600          40.2004
 122444867.205 7  95411598.85144  23300479.202                    23300478.5704
        42.200          28.0004
 119486362.639 7  93106243.38244  22737501.195                    22737498.0004
        47.000          26.8004
 127038065.792 6  98990724.94743  24174538.815                    24174539.5854
        40.400          22.3004
 119606906.999 7  93200182.30845  22760441.812                    22760442.2814
        45.700          32.7004
 111417558.517 8  86818863.61346  21202056.726                    21202053.1624
        51.200          40.5004
 132225562.131 6 103032905.71443  25161687.618                    25161687.5344
        39.200          19.6004
 126064691.336 7  98232208.02944  23989320.488                    23989319.9434
        45.600          27.8004
 15  7  9  6  9 45.0000000  0  9G13G15G17G20G24G30G28G18G05
 105696680.674 8  82361034.53847  20113409.566                    20113406.1464
        50.400          42.9004
 111897861.712 8  87193135.05446  21293453.228                    21293450.8914
        49.800          41.2004
 122402967.109 7  95378949.45944  23292505.486                    23292505.2594
        42.000          28.3004
 119509079.681 7  93123944.97544  22741823.681                    22741820.5664
        45.600          25.6004
 126993277.187 6  98955824.77543  24166015.675                    24166017.0384
        40.800          21.5004
 119646306.827 7  93230883.44245  22767939.262                    22767939.9354
        44.900          32.4004
 111441084.254 8  86837195.35046  21206533.996                    21206530.0514
        50.500          40.3004
 132194730.183 6 103008880.83043  25155820.225                    25155819.6024
        39.700          19.3004
 126114476.691 7  98271001.73244  23998794.543                    23998794.9894
        45.700          28.9004
 15  7  9  6 10  0.0000000  0  9G13G15G17G20G24G30G28G18G05
 105698591.406 8  82362523.41947  20113772.977                    20113769.6304
        50.900          43.1004
 111871451.130 8  87172555.37746  21288427.221                    21288425.0114
        50.400          40.6004
 122361130.413 6  95346349.46344  23284544.294                    23284544.0514
        41.300          28.2004
 119531915.433 7  93141739.04744  22746169.884                    22746166.1374
        45.500          27.1004
 126948505.291 6  98920937.63343  24157495.121                    24157497.4004
        39.900          22.2004
 119685740.891 7  93261611.23945  22775443.368                    22775443.9004
        45.900          32.7004
 111464703.447 8  86855599.91046  21211028.155                    21211024.1844
        50.900          40.0004
 132163991.795 6 102984928.87943  25149971.236                    25149970.1894
        39.000          19.6004
 126164285.930 7  98309814.05444  24008272.615                    24008272.7484
        44.900          28.1004
 15  7  9  6 10 15.0000000  0  9G13G15G17G20G24G30G28G18G05
 105700636.318 8  82364116.86147  20114162.152                    20114158.4784
        50.400          42.6004
 111845149.138 8  87152060.32846  21283421.525                    21283418.7314
        49.300          39.8004
 122319357.976 7  95313799.54944  23276595.641                    23276594.9814
        43.100          28.5004
 119554869.763 7  93159625.55944  22750537.338                    22750534.6664
        45.700          26.1004
 126903750.954 6  98886064.15443  24148978.314                    24148980.3144
        38.800          21.3004
 119725209.432 7  93292365.91845  22782953.948                    22782954.5944
        45.900          32.6004
 111488416.136 8  86874077.32746  21215540.662                    21215536.8694
        50.900          39.8004
 132133347.505 6 102961050.20443  25144140.640                    25144137.9204
        39.900          20.6004
 126214119.175 7  98348645.07444  24017756.220                    24017756.2904
        45.100          27.5004
 15  7  9  6 10 30.0000000  0  9G13G15G17G20G24G30G28G18G05
 105702815.627 8  82365815.01747  20114576.776                    20114573.3514
        50.500          43.0004
 111818955.999 8  87131650.11846  21278437.382                    21278434.1304
        48.700          39.5004
 122277650.193 7  95281300.00844  23268658.536                    23268658.0214
        43.700          29.3004
 119577942.654 7  93177604.39444  22754928.075                    22754925.5794
        42.600          26.0004
 126859013.927 6  98851204.17843  24140466.355                    24140466.6424
        39.800          21.8004
 119764712.464 7  93323147.46745  22790471.201                    22790471.8274
        45.700          32.5004
 111512222.085 8  86892627.40146  21220070.732                    21220066.8954
        50.300          39.2004
 132102797.792 6 102937245.28943  25138326.164                    25138324.8084
        39.200          20.9004
 126263976.058 7  98387494.51944  24027243.112                    24027244.1944
        44.700          27.2004
 15  7  9  6 10 45.0000000  0  9G13G15G17G20G24G30G28G18G05
 105705129.459 8  82367617.99747  20115017.481                    20115013.6514
        51.200          43.2004
 111792871.978 8  87111324.92446  21273473.854                    21273471.2024
        50.300          40.0004
 122236007.493 7  95248851.16744  23260734.552                    23260733.6244
        43.300          28.9004
 119601133.694 6  93195675.33544  22759340.802                    22759338.3894
        41.300          27.1004
 126814294.746 6  98816358.05043  24131955.616                    24131957.8094
        37.400          21.1004
 119804249.957 7  93353955.86445  22797994.617                    22797996.1914
        44.900          32.2004
 111536121.159 8  86911250.05646  21224618.457                    21224614.5094
        48.800          39.6004
 132072342.935 6 102913514.26943  25132531.924                    25132529.7454
        41.500          21.3004
 126313856.219 7  98426362.10944  24036735.698                    24036735.4814
        44.100          27.0004
 15  7  9  6 11  0.0000000  0  9G13G15G17G20G24G30G28G18G05
 105707577.545 8  82369525.59847  20115483.096                    20115479.6924
        50.500          42.9004
 111766897.191 8  87091084.83846  21268531.564                    21268528.9594
        50.700          40.4004
 122194429.749 7  95216452.95844  23252822.257                    23252821.2564
        42.100          29.0004
 119624442.276 6  93213837.84244  22763776.938                    22763775.0894
        41.100          28.1004
 126769592.892 6  98781525.49543  24123449.400                    24123451.3814
        38.000          22.6004
 119843821.426 7  93384790.72945  22805524.895                    22805526.1434
        43.900          32.4004
 111560112.800 8  86929944.82946  21229183.982                    21229180.3084
        50.200          39.8004
 132041982.690 7 102889856.97243  25126754.848                    25126753.1674
        42.600          22.0004
 126363758.872 7  98465247.22344  24046231.061                    24046231.5944
        43.600          27.4004
 15  7  9  6 11 15.0000000  0  9G13G15G17G20G24G30G28G18G05
 105710159.456 8  82371537.46647  20115974.367                    20115971.0204
        49.900          42.4004
 111741031.249 8  87070929.56746  21263609.105                    21263606.5894
        50.400          41.2004
 122152916.921 7  95184105.31444  23244922.242                    23244921.6634
        42.200          28.3004
 119647867.828 7  93232091.47544  22768235.321                    22768232.9104
        45.800          29.4004
 126724908.144 6  98746706.24043  24114945.999                    24114948.4704
        38.800          22.2004
 119883426.365 7  93415651.69045  22813061.613                    22813062.7754
        44.200          31.6004
 111584196.313 8  86948711.19246  21233766.815                    21233763.0604
        50.500          39.4004
 132011716.662 6 102866273.10243  25120994.611                    25120993.4734
        41.800          23.0004
 126413683.230 7  98504149.26744  24055731.236                    24055732.2434
        42.600          27.2004
 15  7  9  6 11 30.0000000  0  9G13G15G17G20G24G30G28G18G05
 105712876.481 8  82373654.62247  20116491.414                    20116488.2074
        50.500          42.6004
 111715275.717 8  87050860.34946  21258707.672                    21258706.0744
        49.300          41.2004
 122111470.671 7  95151809.57444  23237035.982                    23237034.7684
        42.800          29.6004
 119671411.056 7  93250436.82645  22772714.933                    22772712.9694
        46.300          30.8004
 126680241.487 6  98711901.13243  24106446.367                    24106449.9204
        38.300          22.0004
 119923065.906 7  93446539.59445  22820604.561                    22820606.0684
        43.300          31.5004
 111608372.744 8  86967549.96946  21238367.159                    21238363.6474
        50.700          39.5004
 131981546.336 6 102842763.78143  25115253.339                    25115252.7924
        41.300          23.0004
 126463630.146 7  98543068.84644  24065236.444                    24065238.1954
        42.400          28.7004
 15  7  9  6 11 45.0000000  0  9G13G15G17G20G24G30G28G18G05
 105715728.372 8  82375876.87747  20117034.131                    20117031.0034
        50.900          43.1004
 111689630.301 8  87030876.93446  21253827.346                    21253825.9514
        49.900          40.4004
 122070090.830 6  95119565.57444  23229161.290                    23229160.5224
        41.300          29.7004
 119695071.416 7  93268873.44844  22777217.688                    22777215.2104
        45.200          29.4004
 126635592.653 6  98677109.88143  24097949.588                    24097953.9674
        38.900          22.5004
 119962739.521 7  93477454.03645  22828153.869                    22828155.9074
        44.700          32.1004
 111632641.404 8  86986460.59546  21242985.423                    21242981.6224
        50.300          39.5004
 131951471.452 6 102819328.85743  25109530.015                    25109529.7014
        41.400          22.3004
 126513598.812 6  98582005.41044  24074745.467                    24074746.0364
        41.800          28.3004
 15  7  9  6 12  0.0000000  0  9G13G15G17G20G24G30G28G18G05
 105718715.173 8  82378204.24947  20117602.502                    20117599.0754
        50.400          43.0004
 111664095.152 8  87010979.42046  21248968.679                    21248965.8244
        50.100          41.0004
 122028777.771 6  95087373.63744  23221299.515                    23221298.5324
        40.900          29.1004
 119718848.534 7  93287401.05445  22781742.217                    22781740.1594
        46.100          31.1004
 126590961.941 6  98642332.77843  24089456.229                    24089460.7524
        38.600          22.6004
 120002447.097 7  93508394.95045  22835710.497                    22835712.4304
        45.500          31.6004
 111657001.866 8  87005442.76746  21247621.441                    21247617.2034
        51.100          39.2004
 131921492.216 6 102795968.42843  25103824.448                    25103823.9824
        41.100          21.5004
 126563588.771 6  98620958.55344  24084258.050                    24084259.1654
        41.300          27.5004
 15  7  9  6 12 15.0000000  0  9G13G15G17G20G24G30G28G18G05
 105721837.015 8  82380636.85247  20118196.516                    20118193.5234
        50.400          42.9004
 111638670.824 8  86991168.26246  21244130.474                    21244127.6144
        49.900          40.9004
 121987531.913 6  95055234.05144  23213450.626                    23213450.0144
        40.800          29.3004
 119742742.219 7  93306019.49645  22786287.884                    22786287.2474
        45.800          31.5004
 126546349.176 6  98607569.65143  24080966.121                    24080971.5194
        38.900          22.5004
 120042188.690 7  93539362.40345  22843273.634                    22843274.5144
        43.900          32.3004
 111681454.176 8  87024496.49846  21252274.284                    21252270.0274
        50.800          39.3004
 131891609.223 6 102772682.96843  25098138.305                    25098137.0834
        41.000          21.3004
 126613599.954 7  98659928.24244  24093775.250                    24093776.1824
        42.100          28.1004
 15  7  9  6 12 30.0000000  0  9G13G15G17G20G24G30G28G18G05
 105725093.810 8  82383174.60747  20118816.175                    20118812.7964
        50.500          42.9004
 111613357.196 8  86971443.38246  21239313.146                    21239310.9804
        50.800          41.0004
 121946353.469 7  95023146.99444  23205614.755                    23205613.3964
        42.000          29.2004
 119766751.956 7  93324728.33445  22790857.530                    22790856.2674
        44.900          30.6004
 126501754.321 6  98572820.52643  24072479.955                    24072485.4284
        38.400          22.6004
 120081963.971 7  93570356.10745  22850842.266                    22850842.5424
        45.200          32.2004
 111705997.847 8  87043621.42546  21256944.834                    21256941.0754
        50.000          39.3004
 131861822.341 6 102749472.39543  25092469.280                    25092469.0554
        40.300          21.7004
 126663631.645 7  98698913.88244  24103295.956                    24103296.8224
        43.300          27.9004
 15  7  9  6 12 45.0000000  0  9G13G15G17G20G24G30G28G18G05
 105728485.145 8  82385817.20547  20119461.733                    20119458.6594
        50.300          42.6004
 111588154.099 8  86951804.61546  21234517.097                    21234515.3774
        49.000          41.0004
 121905242.357 6  94991112.37645  23197792.038                    23197790.4964
        41.700          30.4004
 119790877.084 7  93343527.12345  22795447.937                    22795447.4604
        44.700          30.8004
 126457177.193 6  98538085.18543  24063998.083                    24064002.7364
        38.700          23.3004
 120121772.498 7  93601375.71745  22858417.485                    22858417.6124
        44.900          32.0004
 111730632.162 8  87062816.99646  21261632.905                    21261628.9394
        50.400          39.4004
 131832131.185 6 102726336.43643  25086819.493                    25086818.9004
        39.300          20.4004
 126713683.040 7  98737914.91944  24112820.572                    24112821.2684
        42.500          27.5004
 15  7  9  6 13  0.0000000  0  9G13G15G17G20G24G30G28G18G05
 105732011.736 8  82388565.19647  20120132.891                    20120129.4444
        50.400          42.7004
 111563062.168 8  86932252.48246  21229742.343                    21229740.6624
        49.300          41.0004
 121864199.440 7  94959130.90644  23189981.172                    23189980.0924
        42.100          29.2004
 119815117.976 7  93362416.07545  22800060.961                    22800060.0834
        44.200          30.6004
 126412618.162 6  98503363.92844  24055519.005                    24055522.7324
        39.500          26.2004
 120161614.763 7  93632421.62545  22865999.215                    22865999.6184
        43.300          32.3004
 111755357.539 8  87082083.50246  21266337.749                    21266333.8544
        50.200          39.5004
 131802536.727 6 102703275.84843  25081188.140                    25081187.6604
        37.700          20.6004
 126763754.477 7  98776931.53744  24122348.255                    24122349.4524
        43.100          28.2004
 15  7  9  6 13 15.0000000  0  9G13G15G17G20G24G30G28G18G05
 105735673.553 8  82391418.55347  20120829.586                    20120826.4814
        51.000          42.8004
 111538081.808 8  86912787.28946  21224988.837                    21224986.5104
        49.100          40.6004
 121823224.912 6  94927202.74644  23182183.434                    23182182.3794
        41.300          29.0004
 119839474.142 7  93381394.84545  22804696.338                    22804694.8914
        44.900          31.1004
 126368077.334 6  98468656.85744  24047042.528                    24047047.1504
        39.200          24.7004
 120201490.539 7  93663493.62645  22873587.158                    22873588.3174
        43.200          31.5004
 111780173.536 8  87101420.62846  21271060.397                    21271056.8434
        51.200          39.8004
 131773038.996 6 102680290.61543  25075575.414                    25075574.3654
        38.100          19.3004
 126813845.484 7  98815963.41044  24131880.517                    24131881.9844
        42.800          27.7004
 15  7  9  6 13 30.0000000  0  9G13G15G17G20G24G30G28G18G05
 105739470.459 8  82394377.17147  20121552.127                    20121548.8544
        50.700          43.0004
 111513212.928 8  86893408.93246  21220256.665                    21220253.4064
        49.600          40.7004
 121782319.225 6  94895328.20444  23174400.044                    23174398.4564
        41.600          29.2004
 119863945.111 7  93400463.08945  22809353.175                    22809351.7594
        46.200          31.1004
 126323554.650 6  98433963.93144  24038571.472                    24038575.4724
        39.900          25.8004
 120241399.569 7  93694591.53345  22881181.839                    22881182.7174
        43.700          31.4004
 111805079.834 8  87120828.12646  21275800.145                    21275795.9754
        51.900          39.4004
 131743637.944 6 102657380.73043  25069980.343                    25069979.3214
        40.100          18.3004
 126863955.350 7  98855009.98444  24141416.381                    24141417.5894
        43.200          28.0004
