     2.11           OBSERVATION DATA    G (GPS)             RINEX VERSION / TYPE
teqc  2015Jun23                         20151003 10:05:44UTCPGM / RUN BY / DATE
Linux2.6.32-279.el6.x86_64|x86_64|gcc|Win64-MinGW64|=       COMMENT
BIT 2 OF LLI FLAGS DATA COLLECTED UNDER A/S CONDITION       COMMENT
-Unknown-                                                   MARKER NAME
-Unknown-           -Unknown-                               OBSERVER / AGENCY
-Unknown-           -Unknown-           -Unknown-           REC # / TYPE / VERS
-Unknown-           -Unknown-                               ANT # / TYPE
        0.0000        0.0000        0.0000                  APPROX POSITION XYZ
        0.0000        0.0000        0.0000                  ANTENNA: DELTA H/E/N
     1     1                                                WAVELENGTH FACT L1/2
     7    L1    L2    C1    P1    P2    S1    S2            # / TYPES OF OBSERV
 SNR is mapped to RINEX snr flag value [0-9]                COMMENT
  L1 & L2: min(max(int(snr_dBHz/6), 0), 9)                  COMMENT
  2015     7     8     9     0    0.0000000     GPS         TIME OF FIRST OBS
                                                            END OF HEADER
 15  7  8  9  0  0.0000000  0  9G25G17G12G02G06G15G24G14G13
 125536212.888 7  97820443.96544  23888742.648                    23888746.6234
        42.700          25.3004
 119808478.188 8  93357246.54645  22798796.354                    22798794.5744
        49.300          35.4004
 109747664.206 8  85517679.31546  20884274.611                    20884271.6184
        50.800          39.3004
 129819323.396 5                  24703791.282
        33.700
 124790660.726 7  97239520.58344  23746862.331                    23746865.7824
        42.600          26.4004
 122143532.948 7  95176758.86145  23243151.847                    23243151.9744
        46.200          32.0004
 106387080.454 8  82899038.03447  20244784.767                    20244784.7024
        51.600          43.7004
 127940355.308 7  99693776.88943  24346235.407                    24346234.4314
        43.400          21.7004
 131913963.520 6 102790061.62242  25102411.944                    25102413.6184
        41.100          16.9004
 15  7  8  9  0 15.0000000  0  9G25G17G12G02G06G15G24G14G13
 125491045.479 7  97785248.63244  23880147.479                    23880151.1804
        43.700          27.3004
 119845332.594 8  93385964.23345  22805809.768                    22805808.0984
        49.000          35.3004
 109723321.817 8  85498711.24446  20879642.656                    20879639.8664
        49.900          39.3004
 129776224.477 5                  24695591.327
        34.900
 124755212.197 7  97211898.41344  23740116.432                    23740119.9524
        43.300          27.4004
 122193198.848 7  95215459.50945  23252602.250                    23252602.5974
        46.500          31.2004
 106380728.013 8  82894088.08247  20243575.846                    20243575.6424
        51.300          44.0004
 127897420.277 7  99660321.05543  24338064.419                    24338063.7114
        43.500          21.3004
 131973810.009 6 102836695.18142  25113799.755                    25113801.8424
        40.600          17.4004
 15  7  8  9  0 30.0000000  0  9G25G17G12G02G06G15G24G14G13
 125445910.759 7  97750078.78044  23871558.813                    23871561.8654
        43.200          24.2004
 119882274.701 8  93414750.25745  22812839.585                    22812837.6704
        48.600          35.1004
 109699060.399 8  85479806.26446  20875025.799                    20875023.1864
        49.400          39.2004
 129733124.247 5                  24687388.852
        34.300
 124719843.396 7  97184338.37344  23733385.691                    23733388.9434
        43.200          28.1004
 122242909.824 7  95254195.29145  23262061.786                    23262062.2114
        45.500          31.3004
 106374485.148 8  82889223.51447  20242387.971                    20242387.8704
        52.400          43.6004
 127854564.697 7  99626927.12943  24329910.398                    24329908.4614
        43.000          20.6004
 132033649.329 6 102883323.07742  25125186.299                    25125189.1434
        40.300          16.9004
 15  7  8  9  0 45.0000000  0  9G25G17G12G02G06G15G24G14G13
 125400809.819 6  97714935.23044  23862975.736                    23862978.7694
        41.200          24.7004
 119919305.373 7  93443605.29745  22819885.923                    22819884.6224
        47.800          34.9004
 109674880.999 8  85460965.19146  20870424.629                    20870422.2494
        49.500          39.1004
 129690024.188 5                  24679186.918
        34.100
 124684555.727 7  97156841.54844  23726671.435                    23726673.7074
        42.400          28.3004
 122292666.787 7  95292966.88945  23271530.944                    23271531.0894
        45.500          31.0004
 106368353.204 8  82884445.37647  20241220.877                    20241220.6744
        51.900          43.7004
 127811790.002 7  99593596.22343  24321770.228                    24321768.6544
        43.000          20.9004
 132093482.373 6 102929946.17842  25136572.682                    25136574.6224
        40.800          16.3004
 15  7  8  9  1  0.0000000  0  9G25G17G12G02G06G15G24G14G13
 125355742.382 7  97679817.80144  23854399.663                    23854402.9414
        42.000          26.5004
 119956424.013 7  93472528.88345  22826948.950                    22826947.8514
        47.000          34.6004
 109650783.149 8  85442187.65546  20865838.761                    20865836.5874
        50.500          38.9004
 129646924.277 5                  24670985.647
        35.000
 124649349.100 7  97129407.88244  23719970.888                    23719974.2824
        44.100          28.0004
 122342468.745 7  95331773.55845  23281007.776                    23281007.8774
        46.600          31.4004
 106362331.763 8  82879753.35047  20240074.969                    20240074.7244
        51.800          43.3004
 127769096.080 7  99560328.24143  24313646.047                    24313644.4024
        42.600          19.3004
 132153308.308 6 102976563.73842  25147957.362                    25147959.7354
        41.000          17.4004
 15  7  8  9  1 15.0000000  0  9G25G17G12G02G06G15G24G14G13
 125310707.675 7  97644725.85944  23845830.605                    23845832.8874
        42.700          25.0004
 119993629.449 8  93501520.09845  22834029.413                    22834027.7644
        48.600          34.2004
 109626766.181 8  85423473.15246  20861268.696                    20861266.6394
        50.300          39.3004
 129603823.924 5                  24662783.955
        35.100
 124614223.128 7  97102037.05344  23713287.469                    23713290.2284
        43.900          29.4004
 122392314.648 7  95370614.48045  23290493.428                    23290492.8944
        46.200          31.5004
 106356420.134 8  82875146.88747  20238950.182                    20238949.9854
        51.700          43.4004
 127726482.484 7  99527122.85443  24305536.191                    24305534.1474
        42.500          20.1004
 132213126.097 6 103023174.89242  25159340.071                    25159342.9454
        40.500          15.6004
 15  7  8  9  1 30.0000000  0  9G25G17G12G02G06G15G24G14G13
 125265706.575 7  97609660.11144  23837266.195                    23837269.6434
        43.200          26.1004
 120030922.187 7  93530579.34645  22841126.192                    22841124.1274
        47.400          34.2004
 109602830.819 8  85404822.25146  20856713.637                    20856712.0574
        50.000          39.1004
 129560724.150 5                  24654582.393
        34.800
 124579178.881 7  97074729.90944  23706618.572                    23706621.9334
        43.400          28.2004
 122442204.794 7  95409489.87245  23299986.968                    23299986.7044
        46.100          31.4004
 106350619.470 8  82870626.89047  20237846.475                    20237846.1354
        52.500          43.6004
 127683950.121 7  99493980.76143  24297442.977                    24297439.7674
        42.200          19.0004
 132272936.079 6 103069779.98642  25170721.633                    25170725.0094
        38.300          13.9004
 15  7  8  9  1 45.0000000  0  9G25G17G12G02G06G15G24G14G13
 125220738.863 7  97574620.35743  23828710.226                    23828711.7864
        42.400          23.2004
 120068301.606 7  93559706.14345  22848239.366                    22848237.1344
        47.300          33.9004
 109578976.842 8  85386234.75546  20852174.739                    20852172.4274
        50.200          39.3004
 129517625.057 6                  24646379.835
        36.800
 124544216.583 6  97047486.63044  23699965.211                    23699968.5234
        41.500          29.3004
 122492138.711 7  95448399.36545  23309489.090                    23309489.1104
        46.600          30.4004
 106344929.444 8  82866193.11047  20236763.656                    20236763.4214
        51.500          43.5004
 127641499.126 6  99460902.08043  24289364.445                    24289361.2544
        41.900          19.0004
 132332737.824 6 103116378.63642  25182101.343                    25182104.7884
        38.900          15.6004
 15  7  8  9  2  0.0000000  0  9G25G17G12G02G06G15G24G14G13
 125175803.801 6  97539606.07643  23820158.271                    23820160.9714
        40.900          22.6004
 120105766.777 8  93588899.74845  22855368.751                    22855366.8274
        48.000          34.0004
 109555203.487 8  85367710.07946  20847650.406                    20847648.2524
        50.100          39.4004
 129474526.274 6                  24638178.797
        37.100
 124509335.733 7  97020306.82044  23693327.090                    23693331.2714
        42.600          27.2004
 122542115.181 7  95487342.01345  23318999.222                    23319000.0244
        46.400          30.9004
 106339349.178 8  82861844.85447  20235701.666                    20235701.3474
        51.800          43.4004
 127599129.176 7  99427886.57942  24281301.872                    24281298.2364
        42.200          17.8004
 132392530.165 6 103162969.92742  25193480.171                    25193482.5834
        38.800          14.8004
 15  7  8  9  2 15.0000000  0  9G25G17G12G02G06G15G24G14G13
 125130903.242 6  97504618.73343  23811613.439                    23811616.8044
        39.900          22.5004
 120143319.090 7  93618161.25745  22862514.680                    22862512.8984
        46.300          33.1004
 109531512.545 8  85349249.62346  20843142.322                    20843139.8324
        49.900          39.1004
 129431429.845 6                  24629978.024
        37.500
 124474538.439 7  96993192.12844  23686705.777                    23686709.3434
        42.600          29.3004
 122592135.687 7  95526318.97245  23328517.930                    23328518.2044
        47.100          30.8004
 106333881.027 8  82857583.95847  20234661.261                    20234660.5614
        51.300          43.3004
 127556842.169 6  99394935.70443  24273254.427                    24273252.1984
        41.900          18.6004
 132452314.738 6 103209555.20042  25204856.029                    25204859.2804
        36.700          16.9004
 15  7  8  9  2 30.0000000  0  9G25G17G12G02G06G15G24G14G13
 125086037.511 6  97469658.44043  23803076.824                    23803079.1774
        39.800          22.5004
 120180958.441 8  93647490.59245  22869677.169                    22869675.2934
        48.100          33.0004
 109507904.203 8  85330853.52546  20838649.896                    20838647.0454
        51.700          39.1004
 129388336.411 6                  24621776.994
        38.100
 124439825.355 7  96966143.02144  23680099.604                    23680103.6714
        42.900          28.5004
 122642200.013 7  95565330.08545  23338045.101                    23338045.2704
        46.200          31.4004
 106328525.055 8  82853410.46747  20233642.116                    20233641.8374
        52.700          43.2004
 127514638.657 6  99362049.86243  24265222.873                    24265221.2534
        41.000          19.9004
 132512091.428 5 103256134.34642  25216232.192                    25216234.5154
        35.900          15.6004
 15  7  8  9  2 45.0000000  0  9G25G17G12G02G06G15G24G14G13
 125041204.310 6  97434723.50643  23794544.607                    23794546.6144
        40.600          22.2004
 120218682.152 7  93676885.67045  22876855.619                    22876853.7984
        46.400          32.4004
 109484376.295 8  85312520.10346  20834172.920                    20834169.6504
        50.300          39.4004
 129345243.826 6                  24613577.664
        38.000
 124405194.479 7  96939157.98444  23673509.422                    23673513.3024
        43.000          29.7004
 122692306.160 7  95604373.77245  23347579.850                    23347580.0024
        46.100          31.0004
 106323279.215 8  82849322.81147  20232643.846                    20232643.2654
        51.800          43.6004
 127472516.606 6  99329227.54143  24257207.575                    24257205.9844
        40.600          19.6004
 132571857.415 5 103302705.18042  25227605.618                    25227608.1074
        35.800          14.8004
 15  7  8  9  3  0.0000000  0  9G25G17G12G02G06G15G24G14G13
 124996405.363 6  97399815.29543  23786020.370                    23786020.7924
        41.800          22.5004
 120256491.601 7  93706347.53745  22884050.336                    22884048.4744
        45.700          31.5004
 109460930.332 8  85294250.53246  20829711.438                    20829707.7394
        51.000          40.0004
 129302154.158 5                  24605377.023
        35.600
 124370647.833 7  96912238.57244  23666936.058                    23666939.2874
        42.500          28.8004
 122742454.545 7  95643450.38245  23357122.644                    23357123.2934
        46.200          30.8004
 106318145.196 8  82845322.28547  20231666.821                    20231666.3924
        51.400          43.5004
 127430477.989 6  99296470.19143  24249207.751                    24249205.9844
        40.600          18.3004
 132631614.117 6 103349268.66742  25238976.617                    25238979.7104
        36.500          14.8004
 15  7  8  9  3 15.0000000  0  9G25G17G12G02G06G15G24G14G13
 124951640.526 7  97364933.65244  23777500.851                    23777502.7634
        42.400          24.2004
 120294386.239 7  93735875.79945  22891261.995                    22891260.1644
        45.300          31.5004
 109437566.042 8  85276044.59146  20825265.278                    20825261.7614
        50.800          39.2004
 129259067.324 5                  24597178.759
        35.600
 124336185.508 7  96885384.84944  23660378.162                    23660380.0124
        44.900          28.9004
 122792644.619 7  95682559.46945  23366674.234                    23366674.6654
        46.400          31.3004
 106313122.885 8  82841408.79547  20230711.306                    20230710.6704
        51.700          44.2004
 127388522.955 6  99263778.00042  24241224.349                    24241222.3724
        41.100          17.8004
 132691360.945 5 103395824.66342  25250346.090                    25250349.5154
        35.400          14.8004
 15  7  8  9  3 30.0000000  0  8G25G17G12G02G06G15G24G14
 124906908.531 7  97330077.60944  23768989.594                    23768991.1714
        42.100          24.9004
 120332364.562 7  93765469.26845  22898488.699                    22898487.0244
        45.000          31.6004
 109414282.290 8  85257901.42346  20820834.174                    20820831.2754
        51.100          39.2004
 129215982.426 5                  24588978.948
        33.900
 124301806.550 7  96858596.09644  23653835.903                    23653838.5854
        44.600          29.6004
 122842874.843 7  95721699.85245  23376232.580                    23376232.5724
        46.800          31.1004
 106308211.237 8  82837581.53847  20229776.366                    20229776.4814
        52.300          44.0004
 127346650.424 6  99231150.09243  24233255.650                    24233254.7194
        40.200          18.6004
 15  7  8  9  3 45.0000000  0  8G25G17G12G02G06G15G24G14
 124862211.345 6  97295248.68743  23760483.520                    23760484.8644
        41.600          22.8004
 120370428.112 7  93795129.13945  22905731.363                    22905730.7394
        44.600          31.4004
 109391080.889 8  85239822.42746  20816419.194                    20816415.9294
        51.100          39.0004
 129172901.672 5                  24580781.247
        33.300
 124267513.227 7  96831874.06844  23647309.780                    23647312.6664
        42.400          28.5004
 122893146.970 7  95760872.89945  23385799.066                    23385799.1914
        47.600          31.7004
 106303412.006 8  82833841.87947  20228863.082                    20228862.7794
        50.200          44.2004
 127304862.568 6  99198588.20043  24225303.440                    24225302.9574
        40.900          19.3004
 15  7  8  9  4  0.0000000  0  8G25G17G12G02G06G15G24G14
 124817548.399 6  97260446.44843  23751984.066                    23751986.7444
        40.500          23.6004
 120408576.113 7  93824854.82845  22912990.841                    22912990.4324
        45.000          30.4004
 109367961.326 8  85221807.19846  20812019.441                    20812016.7484
        51.400          39.1004
 129129824.736 5                  24572583.817
        33.300
 124233305.348 7  96805218.63145  23640800.795                    23640803.5334
        42.800          30.2004
 122943460.005 7  95800077.80545  23395373.234                    23395373.4404
        47.300          31.7004
 106298725.062 8  82830189.71447  20227971.290                    20227971.5294
        51.500          43.9004
 127263159.245 6  99166092.13143  24217367.709                    24217367.5254
        40.500          18.6004
 15  7  8  9  4 15.0000000  0  8G25G17G12G02G06G15G24G14
 124772919.242 6  97225670.53743  23743491.336                    23743494.5564
        39.600          23.8004
 120446807.544 7  93854645.51145  22920266.056                    22920265.2204
        44.600          31.5004
 109344922.961 8  85203855.24046  20807635.552                    20807632.7974
        50.800          39.2004
 129086751.605 5                  24564385.454
        31.300
 124199182.656 7  96778629.56644  23634307.537                    23634310.0604
        43.900          28.7004
 122993812.969 7  95839313.84345  23404955.381                    23404955.1914
        47.000          32.0004
 106294149.462 8  82826624.31647  20227100.348                    20227100.1414
        51.200          43.3004
 127221540.047 6  99133661.65343  24209447.396                    24209447.2594
        40.700          19.3004
 15  7  8  9  4 30.0000000  0  8G25G17G12G02G06G15G24G14
 124728324.739 6  97190921.62344  23735005.178                    23735008.8364
        38.400          24.3004
 120485123.003 7  93884501.68245  22927557.284                    22927557.1074
        45.600          31.1004
 109321966.633 8  85185967.20146  20803266.967                    20803264.4414
        50.200          39.2004
 129043683.249 5                  24556189.334
        30.500
 124165146.371 7  96752107.82644  23627830.090                    23627833.4644
        42.500          29.8004
 123044206.423 7  95878581.41445  23414544.752                    23414544.9224
        47.400          30.8004
 106289686.429 8  82823146.62247  20226251.279                    20226251.2894
        51.200          43.5004
 127180006.096 6  99101297.55843  24201544.284                    24201543.6344
        41.100          19.9004
 15  7  8  9  4 45.0000000  0  8G25G17G12G02G06G15G24G14
 124683764.378 6  97156199.29044  23726525.967                    23726529.4394
        40.200          24.8004
 120523521.526 7  93914422.57145  22934864.812                    22934864.0434
        45.100          30.7004
 109299091.733 8  85168142.60546  20798914.249                    20798911.8364
        50.900          39.3004
 129000619.520 5                  24547997.671
        33.000
 124131196.089 6  96725653.11144  23621369.501                    23621372.5404
        41.800          29.4004
 123094639.340 7  95917879.75645  23424141.514                    23424141.7534
        45.900          30.5004
 106285335.449 8  82819756.24947  20225423.179                    20225423.1094
        50.900          43.1004
 127138557.116 6  99068999.69543  24193657.009                    24193656.3324
        40.500          19.9004
 15  7  8  9  5  0.0000000  0  8G25G17G12G02G06G15G24G14
 124639237.980 6  97121503.46244  23718053.205                    23718056.7904
        40.100          25.5004
 120562002.751 7  93944407.92245  22942187.110                    22942186.9504
        45.600          30.9004
 109276298.144 8  85150381.37446  20794576.907                    20794574.1254
        51.700          39.8004
 128957520.33615                  24539800.206
        31.900
 124097332.172 7  96699265.69644  23614924.785                    23614928.7044
        42.200          29.8004
 123145111.322 7  95957208.51544  23433746.174                    23433746.1084
        45.700          29.8004
 106281096.240 8  82816452.96947  20224616.415                    20224616.4654
        51.500          43.6004
 127097193.212 6  99036768.11943  24185785.396                    24185785.2024
        41.600          19.9004
 15  7  8  9  5 15.0000000  0  8G25G17G12G02G06G15G24G14
 124594745.890 6  97086834.37144  23709586.218                    23709590.8144
        41.500          25.8004
 120600566.455 7  93974457.53745  22949525.988                    22949525.3984
        45.700          30.6004
 109253586.155 8  85132683.72846  20790255.098                    20790251.6574
        51.100          40.1004
 128914466.350 5                  24531610.120
        32.800
 124063555.089 6  96672945.95444  23608497.998                    23608501.0074
        41.600          28.5004
 123195622.032 7  95996567.46045  23443358.468                    23443358.2074
        47.400          30.9004
 106276969.269 8  82813237.14447  20223831.122                    20223830.7564
        51.100          43.3004
 127055914.975 6  99004603.29243  24177930.717                    24177930.2724
        41.700          21.5004
 15  7  8  9  5 30.0000000  0  8G25G17G12G02G06G15G24G14
 124550289.258 7  97052192.89844  23701126.299                    23701130.0964
        42.000          26.4004
 120639213.449 7  94004572.05545  22956880.383                    22956879.2504
        44.800          30.6004
 109230956.796 8  85115050.46846  20785948.931                    20785945.3974
        50.900          39.7004
 128871419.108 5                  24523416.535
        31.900
 124029866.355 7  96646695.02944  23602086.731                    23602090.3854
        42.300          28.7004
 123246172.245 7  96035957.17745  23452977.361                    23452978.1724
        47.100          30.2004
 106272955.900 8  82810109.84247  20223067.716                    20223067.2114
        51.400          44.2004
 127014723.708 7  98972506.23143  24170091.362                    24170092.0964
        42.500          22.3004
 15  7  8  9  5 45.0000000  0  8G25G17G12G02G06G15G24G14
 124505867.078 7  97017578.25844  23692673.079                    23692676.2884
        42.000          25.8004
 120677942.395 7  94034750.42244  22964249.768                    22964248.6374
        45.300          29.7004
 109208409.053 8  85097480.80846  20781658.155                    20781655.1774
        51.100          39.1004
 128828377.646 5                  24515227.680
        33.400
 123996265.179 7  96620512.36045  23595693.067                    23595696.2194
        43.300          30.2004
 123296760.615 7  96075376.64045  23462604.587                    23462604.5984
        46.500          30.4004
 106269054.936 8  82807070.12547  20222325.328                    20222324.7344
        51.900          43.8004
 126973618.728 7  98940476.41743  24162270.151                    24162269.9994
        42.200          22.0004
 15  7  8  9  6  0.0000000  0  8G25G17G12G02G06G15G24G14
 124461478.752 6  96982990.00144  23684225.566                    23684229.2484
        41.800          24.7004
 120716752.481 7  94064992.02345  22971635.381                    22971633.8134
        45.600          30.6004
 109185942.289 8  85079974.24946  20777382.453                    20777379.6664
        50.500          38.8004
 128785341.717 5                  24507037.441
        34.400
 123962751.364 7  96594397.73244  23589314.944                    23589318.4804
        43.000          29.8004
 123347386.204 7  96114825.08544  23472237.912                    23472238.5194
        46.700          29.7004
 106265265.928 8  82804117.64947  20221604.036                    20221603.8734
        51.600          43.9004
 126932599.739 7  98908513.61143  24154464.926                    24154464.4054
        43.200          21.8004
 15  7  8  9  6 15.0000000  0  8G25G17G12G02G06G15G24G14
 124417126.372 7  96948429.74244  23675786.642                    23675789.0354
        42.600          26.0004
 120755645.304 7  94095298.10745  22979036.305                    22979035.2394
        45.300          31.0004
 109163558.474 8  85062532.32946  20773122.743                    20773120.1954
        49.900          38.8004
 128742313.762 5                  24498848.568
        34.100
 123929327.226 7  96568352.99845  23582954.943                    23582957.7404
        43.400          30.2004
 123398050.687 7  96154303.85844  23481879.460                    23481879.4854
        46.300          29.7004
 106261591.228 8  82801254.24947  20220904.835                    20220904.5344
        51.000          43.9004
 126891668.997 7  98876619.57643  24146676.392                    24146675.6884
        43.200          23.9004
 15  7  8  9  6 30.0000000  0  8G25G17G12G02G06G15G24G14
 124372808.484 7  96913896.35344  23667352.874                    23667354.3644
        42.300          24.5004
 120794619.085 7  94125667.24545  22986452.912                    22986451.1544
        44.100          30.0004
 109141256.160 8  85045153.91646  20768878.776                    20768876.0344
        50.200          38.6004
 128699292.471 5                  24490664.357
        34.100
 123895991.599 6  96542377.20944  23576611.340                    23576614.2464
        41.800          29.3004
 123448752.085 7  96193811.37244  23491527.272                    23491527.7124
        46.900          29.9004
 106258029.114 8  82798478.57947  20220226.989                    20220226.9404
        50.700          43.5004
 126850825.239 7  98844793.32343  24138903.249                    24138902.7794
        43.200          23.0004
 15  7  8  9  6 45.0000000  0  8G25G17G12G02G06G15G24G14
 124328525.494 7  96879390.18044  23658926.324                    23658927.0394
        42.400          24.1004
 120833673.902 7  94156099.55145  22993884.648                    22993883.5694
        45.400          30.6004
 109119035.673 8  85027839.25446  20764650.780                    20764648.0134
        50.700          38.6004
 128656278.621 5                  24482478.252
        35.100
 123862745.246 7  96516470.99844  23570284.458                    23570288.1124
        43.100          29.5004
 123499490.377 7  96233347.64445  23501182.364                    23501183.7854
        46.300          30.5004
 106254580.438 8  82795791.29647  20219570.465                    20219570.5494
        51.000          44.3004
 126810069.220 7  98813035.40544  24131148.077                    24131147.1674
        43.500          25.1004
 15  7  8  9  7  0.0000000  0  8G25G17G12G02G06G15G24G14
 124284277.618 7  96844911.33544  23650505.987                    23650507.3804
        42.300          25.1004
 120872809.331 7  94186594.66245  23001332.334                    23001330.5044
        45.100          31.6004
 109096897.104 8  85010588.41546  20760438.013                    20760435.4124
        50.600          38.9004
 128613272.646 6                  24474294.259
        36.100
 123829588.501 7  96490634.61944  23563975.071                    23563978.5054
        42.800          29.2004
 123550265.336 7  96272912.47545  23510845.177                    23510845.7904
        46.700          30.6004
 106251245.082 8  82793192.31147  20218936.001                    20218936.2744
        50.700          42.9004
 126769401.231 7  98781346.12143  24123408.772                    24123408.3874
        43.400          23.5004
 15  7  8  9  7 15.0000000  0  8G25G17G12G02G06G15G24G14
 124240064.699 7  96810459.74343  23642092.833                    23642094.1474
        42.200          23.9004
 120912025.084 7  94217152.36545  23008794.916                    23008792.9404
        46.300          30.6004
 109074840.188 8  84993401.21646  20756240.707                    20756238.1384
        50.900          39.5004
 128570274.484 6                  24466112.776
        37.500
 123796521.601 6  96464868.22444  23557682.121                    23557685.7864
        40.900          29.2004
 123601076.429 7  96312505.48045  23520514.086                    23520515.0384
        47.000          30.4004
 106248023.093 8  82790681.67547  20218322.819                    20218322.9884
        51.700          43.3004
 126728821.449 7  98749725.55343  24115687.048                    24115685.9494
        43.200          22.2004
 15  7  8  9  7 30.0000000  0  8G25G17G12G02G06G15G24G14
 124195885.993 6  96776034.79643  23633686.007                    23633687.3034
        40.200          22.6004
 120951320.062 7  94247771.80345  23016272.681                    23016269.6944
        47.200          30.8004
 109052864.391 8  84976277.22146  20752058.797                    20752055.7734
        50.700          39.4004
 128527283.832 6                  24457932.121
        37.300
 123763544.168 6  96439171.55144  23551407.156                    23551410.8994
        41.800          28.6004
 123651922.610 7  96352125.81545  23530190.070                    23530190.4144
        47.100          30.6004
 106244913.798 8  82788258.84447  20217731.709                    20217730.9794
        51.800          43.7004
 126688329.361 7  98718173.29943  24107981.737                    24107980.4944
        43.200          22.5004
 15  7  8  9  7 45.0000000  0  8G25G17G12G02G06G15G24G14
 124151742.827 6  96741637.55643  23625285.693                    23625286.9344
        39.600          22.5004
 120990695.159 7  94278453.67145  23023765.203                    23023762.8164
        47.500          31.0004
 109030970.669 8  84959217.19846  20747892.324                    20747889.2524
        50.500          40.2004
 128484302.212 6                  24449753.136
        36.000
 123730657.602 6  96413545.71844  23545148.352                    23545151.9964
        41.100          28.9004
 123702804.620 7  96391774.07845  23539872.576                    23539873.6754
        47.500          31.3004
 106241918.526 8  82785924.86547  20217161.344                    20217160.9524
        51.400          43.5004
 126647926.399 7  98686690.51343  24100292.818                    24100291.6484
        43.500          22.5004
 15  7  8  9  8  0.0000000  0  8G25G17G12G02G06G15G24G14
 124107634.209 6  96707267.23643  23616890.328                    23616893.4694
        39.500          21.5004
 121030149.151 8  94309197.03045  23031273.143                    23031270.7584
        48.100          31.6004
 109009158.277 8  84942220.54546  20743741.870                    20743738.7864
        50.700          39.8004
 128441329.059 6                  24441575.033
        36.300
 123697861.406 6  96387990.26244  23538907.846                    23538911.2384
        40.900          28.3004
 123753721.339 7  96431449.38445  23549561.824                    23549562.9154
        47.400          30.9004
 106239036.343 8  82783679.00547  20216612.962                    20216612.8644
        52.300          43.3004
 126607612.142 7  98655276.84343  24092621.235                    24092619.5104
        43.800          21.7004
 15  7  8  9  8 15.0000000  0  8G25G17G12G02G06G15G24G14
 124063560.391 6  96672924.08143  23608504.100                    23608507.0654
        40.700          23.5004
 121069681.845 8  94340001.70645  23038796.184                    23038793.3274
        48.100          32.0004
 108987427.314 8  84925287.34246  20739606.187                    20739603.3754
        51.600          39.6004
 128398364.674 5                  24433398.999
        35.500
 123665156.036 7  96362505.59744  23532684.545                    23532688.3864
        42.100          29.1004
 123804672.553 7  96471151.56945  23559257.406                    23559258.5974
        47.500          31.2004
 106236267.396 8  82781521.37747  20216086.022                    20216085.5554
        51.300          44.1004
 126567386.805 7  98623932.42843  24084966.979                    24084964.2644
        43.700          21.8004
 15  7  8  9  8 30.0000000  0  8G25G17G12G02G06G15G24G14
 124019523.846 6  96638609.94844  23600124.473                    23600127.2724
        41.100          25.5004
 121109295.316 8  94370869.32945  23046334.532                    23046332.1604
        48.100          32.2004
 108965780.060 8  84908419.35646  20735487.002                    20735483.9964
        51.400          40.1004
 128355411.804 6                  24425225.465
        36.200
 123632544.213 7  96337093.83644  23526478.441                    23526482.1234
        42.600          29.6004
 123855660.156 8  96510882.11245  23568959.942                    23568961.3544
        48.000          30.6004
 106233614.367 8  82779454.08347  20215581.170                    20215581.0824
        51.900          43.9004
 126527253.198 7  98592659.51543  24077329.616                    24077327.2454
        42.600          20.6004
 15  7  8  9  8 45.0000000  0  8G25G17G12G02G06G15G24G14
 123975522.170 7  96604322.98744  23591751.753                    23591754.0154
        42.000          24.9004
 121148986.832 7  94401797.76545  23053887.196                    23053884.5174
        47.800          32.5004
 108944214.199 8  84891614.79646  20731383.455                    20731379.9924
        51.600          39.8004
 128312468.370 5                  24417053.374
        35.800
 123600023.844 6  96311753.32544  23520289.791                    23520293.7074
        41.900          29.8004
 123906681.246 7  96550638.74545  23578669.617                    23578670.0004
        47.600          30.9004
 106231074.679 8  82777475.10547  20215097.680                    20215097.6644
        50.800          43.9004
 126487209.081 6  98561456.31343  24069708.993                    24069707.1654
        41.900          21.3004
 15  7  8  9  9  0.0000000  0  8G25G17G12G02G06G15G24G14
 123931555.960 7  96570063.62944  23583384.521                    23583388.0564
        42.200          24.7004
 121188756.649 7  94432787.21045  23061455.086                    23061452.9214
        47.600          32.6004
 108922730.183 8  84874874.01046  20727294.816                    20727291.8144
        51.000          39.9004
 128269535.253 6                  24408883.406
        36.500
 123567595.808 7  96286484.74844  23514119.983                    23514122.9364
        42.400          29.4004
 123957736.048 7  96590421.64445  23588384.532                    23588385.7504
        47.600          30.9004
 106228649.105 8  82775585.03947  20214635.863                    20214635.8064
        51.100          43.9004
 126447255.308 6  98530323.56643  24062105.439                    24062104.8484
        41.600          20.1004
 15  7  8  9  9 15.0000000  0  8G25G17G12G02G06G15G24G14
 123887626.202 6  96535832.71344  23575025.215                    23575028.8544
        41.800          25.0004
 121228605.364 8  94463838.14045  23069038.313                    23069035.9654
        48.100          32.5004
 108901329.040 8  84858197.80746  20723222.100                    20723219.4884
        50.600          39.8004
 128226613.608 6                  24400715.388
        36.600
 123535261.412 7  96261289.14545  23507966.833                    23507969.1644
        42.900          30.2004
 124008825.313 7  96630231.40445  23598106.599                    23598107.7484
        46.700          30.1004
 106226338.971 8  82773784.94247  20214196.409                    20214196.1904
        50.900          43.4004
 126407393.097 6  98499262.10843  24054521.127                    24054519.0454
        41.100          19.9004
 15  7  8  9  9 30.0000000  0  8G25G17G12G02G06G15G24G14
 123843731.633 7  96501629.18644  23566671.843                    23566675.6494
        42.100          25.4004
 121268531.315 7  94494949.24045  23076635.685                    23076633.9534
        47.400          32.0004
 108880009.392 8  84841585.10746  20719165.189                    20719162.5874
        50.400          40.1004
 128183702.566 6                  24392549.315
        36.000
 123503019.600 7  96236165.67445  23501831.664                    23501833.9844
        43.400          30.1004
 124059947.230 7  96670066.61645  23607835.069                    23607835.8654
        47.000          30.6004
 106224142.606 8  82772073.48147  20213778.385                    20213778.4354
        51.000          43.9004
 126367621.447 6  98468271.25443  24046952.500                    24046951.5294
        40.200          20.9004
 15  7  8  9  9 45.0000000  0  8G25G17G12G02G06G15G24G14
 123799873.321 7  96467453.92244  23558326.415                    23558329.3634
        42.600          25.6004
 121308535.233 7  94526121.09945  23084248.614                    23084246.2554
        47.000          31.4004
 108858772.211 8  84825036.67346  20715123.976                    20715120.8034
        51.100          40.1004
 128140803.382 6                  24384386.455
        37.600
 123470871.758 7  96211115.43444  23495713.424                    23495715.9574
        43.200          29.3004
 124111102.409 7  96709927.74744  23617569.123                    23617570.3374
        46.600          29.6004
 106222061.160 8  82770451.57147  20213382.475                    20213382.1034
        51.500          43.8004
 126327941.658 6  98437351.94843  24039401.615                    24039400.2504
        39.500          19.6004
 15  7  8  9 10  0.0000000  0  8G25G17G12G02G06G15G24G14
 123756051.397 7  96433306.99544  23549987.673                    23549989.7734
        43.100          26.0004
 121348616.833 7  94557353.47945  23091875.663                    23091873.7514
        47.400          31.4004
 108837617.574 8  84808552.55346  20711098.207                    20711095.5554
        51.700          40.6004
 128097916.407 6                  24376224.910
        36.100
 123438818.227 7  96186138.68344  23489613.690                    23489616.7694
        42.200          29.3004
 124162290.635 7  96749814.60945  23627309.911                    23627311.0954
        47.300          30.3004
 106220095.024 8  82768919.51347  20213008.536                    20213007.7534
        51.400          44.1004
 126288353.906 6  98406504.37743  24031867.918                    24031866.7034
        38.000          19.6004
 15  7  8  9 10 15.0000000  0  8G25G17G12G02G06G15G24G14
 123712263.882 7  96399186.89344  23541655.428                    23541656.7124
        43.400          25.6004
 121388773.743 7  94588644.54745  23099517.567                    23099515.3264
        47.600          32.3004
 108816543.475 8  84792131.18346  20707088.387                    20707085.3434
        51.600          40.6004
 128055040.087 5                  24368064.256
        33.900
 123406857.413 7  96161234.16744  23483531.537                    23483535.0674
        42.100          29.1004
 124213509.561 7  96789725.40945  23637056.833                    23637057.5864
        47.500          30.1004
 106218241.985 8  82767475.58947  20212655.685                    20212655.4754
        51.600          43.8004
 126248856.847 6  98375727.48643  24024350.601                    24024350.5504
        37.400          18.3004
 15  7  8  9 10 30.0000000  0  8G25G17G12G02G06G15G24G14
 123668511.997 7  96365094.54244  23533329.345                    23533330.5164
        44.100          24.2004
 121429007.093 7  94619995.18645  23107173.147                    23107171.0604
        47.600          32.8004
 108795551.100 8  84775773.49846  20703093.562                    20703090.9694
        51.800          40.6004
 128012175.827 5                  24359908.362
        34.700
 123374990.800 7  96136403.08244  23477467.656                    23477471.2024
        43.000          29.7004
 124264759.973 7  96829660.73445  23646809.327                    23646810.2324
        47.400          30.1004
 106216503.595 8  82766121.00247  20212324.859                    20212324.5874
        50.700          43.3004
 126209451.607 6  98345022.14042  24016852.292                    24016851.2394
        37.200          16.9004
 15  7  8  9 10 45.0000000  0  8G25G17G12G02G06G15G24G14
 123624796.879 7  96331030.84244  23525010.683                    23525012.2204
        43.600          25.2004
 121469317.526 7  94651405.89545  23114844.189                    23114842.2214
        47.200          31.9004
 108774641.488 8  84759480.30446  20699114.563                    20699111.6404
        51.200          40.3004
 127969325.045 5                  24351756.107
        35.100
 123343219.794 7  96111646.48844  23471422.004                    23471425.0934
        42.500          29.4004
 124316042.532 7  96869621.11645  23656568.147                    23656569.0244
        47.000          30.1004
 106214880.926 8  82764856.58247  20212016.013                    20212015.9974
        51.200          43.6004
 126170139.646 6  98314389.48442  24009372.699                    24009370.5924
        37.700          17.8004
 15  7  8  9 11  0.0000000  0  8G25G17G12G02G06G15G24G14
 123581117.500 7  96296994.98244  23516698.650                    23516700.6974
        42.700          25.2004
 121509703.596 7  94682875.54045  23122529.310                    23122527.6594
        46.900          32.1004
 108753813.529 8  84743250.73546  20695151.101                    20695148.6754
        50.600          41.0004
 127926486.908 5                  24343602.892
        35.600
 123311543.639 7  96086963.78445  23465394.146                    23465397.1324
        42.900          30.7004
 124367356.016 7  96909605.58444  23666333.045                    23666334.3704
        47.300          29.7004
 106213372.901 8  82763681.49747  20211728.998                    20211729.0134
        51.800          43.5004
 126130920.231 6  98283828.92942  24001908.964                    24001908.2514
        39.200          17.4004
 15  7  8  9 11 15.0000000  0  8G25G17G12G02G06G15G24G14
 123537475.181 6  96262988.02644  23508392.915                    23508395.5404
        41.900          24.6004
 121550166.265 7  94714404.88045  23130229.667                    23130227.7084
        47.000          31.1004
 108733068.603 8  84727085.88346  20691203.536                    20691200.8074
        51.500          40.5004
 127883663.300 5                  24335454.132
        35.400
 123279963.935 7  96062356.24345  23459385.271                    23459387.4614
        42.500          30.7004
 124418701.252 7  96949614.79745  23676103.897                    23676104.9194
        47.000          30.0004
 106211981.030 8  82762596.92247  20211464.330                    20211463.9634
        51.200          43.2004
 126091794.857 6  98253341.67343  23994463.750                    23994463.3114
        40.700          18.6004
 15  7  8  9 11 30.0000000  0  8G25G17G12G02G06G15G24G14
 123493868.324 7  96229008.73644  23500095.287                    23500097.6964
        42.700          25.6004
 121590703.580 7  94745992.36845  23137943.306                    23137941.6384
        46.300          31.1004
 108712404.919 8  84710984.32146  20687271.098                    20687268.5474
        51.700          40.5004
 127840852.306 6                  24327307.934
        37.000
 123248479.326 7  96037822.80045  23453393.190                    23453396.5644
        42.400          30.0004
 124470076.118 7  96989647.09645  23685880.146                    23685881.3634
        47.100          30.9004
 106210703.656 8  82761601.56347  20211221.259                    20211221.0204
        51.000          43.9004
 126052762.105 6  98222926.55543  23987036.678                    23987035.5894
        41.500          19.6004
 15  7  8  9 11 45.0000000  0  8G25G17G12G02G06G15G24G14
 123450298.260 7  96195058.05944  23491804.882                    23491806.6104
        43.400          26.1004
 121631316.426 7  94777638.72145  23145671.561                    23145670.2154
        46.200          31.3004
 108691823.884 8  84694947.17346  20683354.784                    20683351.9284
        50.900          40.6004
 127798055.730 6                  24319163.892
        36.500
 123217091.392 7  96013364.70545  23447420.228                    23447423.7744
        43.900          31.1004
 124521481.539 7  97029703.21744  23695662.340                    23695663.8544
        46.800          29.8004
 106209541.992 8  82760696.37347  20211000.555                    20211000.3044
        51.400          43.3004
 126013823.595 7  98192584.86343  23979627.642                    23979626.2814
        42.800          20.4004
 15  7  8  9 12  0.0000000  0  8G25G17G12G02G06G15G24G14
 123406764.799 7  96161135.93244  23483520.626                    23483522.9304
        43.500          25.4004
 121672004.276 7  94809343.52945  23153414.246                    23153412.4434
        46.100          32.1004
 108671325.128 8  84678974.12246  20679454.010                    20679451.2484
        51.100          40.6004
 127755273.795 6                  24311022.523
        36.900
 123185800.304 7  95988982.07045  23441466.054                    23441469.3334
        43.600          30.5004
 124572916.836 7  97069782.58645  23705449.780                    23705451.2514
        47.200          30.3004
 106208495.924 8  82759881.25547  20210801.284                    20210800.5294
        52.000          43.5004
 125974979.336 7  98162316.65043  23972235.552                    23972234.1494
        42.900          20.9004
 15  7  8  9 12 15.0000000  0  8G25G17G12G02G06G15G24G14
 123363268.005 7  96127242.35844  23475243.008                    23475245.8714
        42.700          27.4004
 121712766.888 7  94841106.56645  23161171.071                    23161169.6664
        46.100          31.7004
 108650908.757 8  84663065.28446  20675568.622                    20675566.3314
        50.700          40.2004
 127712506.689 6                  24302883.331
        36.400
 123154606.332 6  95964675.12445  23435529.514                    23435533.3464
        41.600          30.7004
 124624381.816 7  97109885.10644  23715243.671                    23715244.8294
        46.600          29.8004
 106207565.831 8  82759156.51147  20210624.206                    20210624.2224
        52.000          44.3004
 125936229.705 7  98132122.14743  23964861.446                    23964861.0664
        43.100          21.5004
 15  7  8  9 12 30.0000000  0  8G25G17G12G02G06G15G24G14
 123319807.427 6  96093377.00944  23466972.409                    23466975.5714
        41.500          26.3004
 121753603.345 7  94872927.16045  23168941.523                    23168940.2094
        46.100          30.6004
 108630574.161 8  84647220.15546  20671699.358                    20671696.2854
        51.400          40.1004
 127669754.287 6                  24294749.170
        36.000
 123123509.403 7  95940443.78745  23429612.092                    23429615.5684
        43.200          30.7004
 124675875.590 7  97150010.05845  23725042.699                    23725044.2294
        46.200          30.0004
 106206751.150 8  82758521.69547  20210468.952                    20210468.6384
        52.300          43.9004
 125897574.517 7  98102001.25143  23957506.039                    23957505.2874
        42.700          21.7004
 15  7  8  9 12 45.0000000  0  8G25G17G12G02G06G15G24G14
 123276383.911 6  96059540.56544  23458708.977                    23458713.0174
        40.400          24.9004
 121794514.063 7  94904805.60945  23176726.898                    23176725.2534
        45.600          30.2004
 108610322.154 8  84631439.37746  20667845.520                    20667842.6484
        51.000          40.6004
 127627017.993 5                  24286615.787
        34.600
 123092510.521 7  95916288.84745  23423713.135                    23423716.8114
        42.000          30.3004
 124727398.527 7  97190157.73645  23734846.736                    23734848.1044
        46.800          30.2004
 106206052.706 8  82757977.45247  20210336.302                    20210335.9324
        51.100          43.7004
 125859014.617 7  98071954.62443  23950168.170                    23950167.8704
        43.800          22.8004
 15  7  8  9 13  0.0000000  0  8G25G17G12G02G06G15G24G14
 123232997.162 6  96025732.72943  23450452.431                    23450456.2354
        40.500          23.0004
 121835498.700 7  94936741.66945  23184525.568                    23184524.3774
        45.200          30.0004
 108590152.309 8  84615722.63346  20664007.346                    20664004.0644
        51.000          39.9004
 127584297.482 6                  24278486.993
        36.900
 123061609.777 6  95892210.37844  23417833.018                    23417835.2834
        41.600          29.8004
 124778950.032 7  97230327.67045  23744657.261                    23744657.9864
        47.300          30.2004
 106205470.369 8  82757523.68047  20210225.424                    20210225.0854
        51.100          43.6004
 125820550.164 7  98041982.36243  23942848.729                    23942847.6454
        44.500          22.9004
 15  7  8  9 13 15.0000000  0  8G25G17G12G02G06G15G24G14
 123189647.238 6  95991953.63644  23442203.462                    23442206.5474
        40.900          24.9004
 121876556.764 7  94968734.92145  23192339.222                    23192337.6434
        45.200          30.2004
 108570064.731 8  84600069.98646  20660184.926                    20660181.4744
        51.600          39.7004
 127541593.157 6                  24270359.758
        37.100
 123030807.409 7  95868208.55744  23411971.728                    23411974.1044
        42.200          29.4004
 124830529.598 7  97270519.49845  23754472.290                    23754472.9634
        47.500          30.7004
 106205004.170 8  82757160.40447  20210136.772                    20210136.5504
        51.100          43.3004
 125782181.298 7  98012084.56243  23935547.623                    23935546.6904
        45.300          23.3004
 15  7  8  9 13 30.0000000  0  8G25G17G12G02G06G15G24G14
 123146333.438 6  95958202.68144  23433961.648                    23433964.1124
        41.500          24.3004
 121917687.306 7  95000784.66345  23200166.133                    23200163.8634
        45.400          30.6004
 108550058.599 8  84584480.80646  20656377.603                    20656374.0274
        51.500          40.1004
 127498904.438 6  99349791.47452  24262236.619                    24262233.8634
        37.900          17.8004
 123000103.027 7  95844283.10644  23406129.028                    23406131.4804
        42.600          29.9004
 124882136.239 7  97310732.39644  23764292.872                    23764293.7304
        46.800          29.8004
 106204653.324 8  82756887.01747  20210069.892                    20210069.9844
        50.900          43.5004
 125743907.629 7  97982260.97843  23928264.283                    23928263.4324
        44.800          22.8004
 15  7  8  9 13 45.0000000  0  8G25G17G12G02G06G15G24G14
 123103059.432 6  95924482.70343  23425726.511                    23425727.7724
        41.100          23.0004
 121958893.527 7  95032893.37045  23208008.011                    23208005.8794
        45.800          31.6004
 108530137.513 8  84568957.89646  20652586.864                    20652583.2964
        51.000          40.4004
 127456235.425 6  99316542.92643  24254117.162                    24254114.5034
        36.700          18.6004
 122969500.515 7  95820437.02545  23400305.306                    23400308.4894
        42.600          30.2004
 124933773.168 7  97350968.89844  23774119.293                    23774120.6484
        47.400          29.5004
 106204421.371 8  82756706.27447  20210025.923                    20210025.3694
        51.100          44.2004
 125705732.938 7  97952514.47343  23920999.545                    23920999.2834
        44.700          22.8004
 15  7  8  9 14  0.0000000  0  8G25G17G12G02G06G15G24G14
 123059819.056 6  95890788.93444  23417498.006                    23417498.8664
        41.500          25.8004
 122000168.834 7  95065055.92745  23215862.380                    23215860.1164
        46.200          31.2004
 108510295.380 8  84553496.50746  20648810.986                    20648807.7634
        51.200          40.9004
 127413580.119 6  99283305.06742  24246000.558                    24245997.9694
        37.400          17.8004
 122938993.991 6  95796665.75545  23394499.577                    23394503.3324
        41.700          30.0004
 124985433.816 7  97391223.87944  23783949.722                    23783950.4014
        46.600          29.2004
 106204302.465 8  82756613.61947  20210003.381                    20210003.0934
        51.000          44.4004
 125667651.354 7  97922840.55544  23913753.125                    23913751.8014
        44.100          24.9004
 15  7  8  9 14 15.0000000  0  8G25G17G12G02G06G15G24G14
 123016616.083 7  95857124.33644  23409276.722                    23409277.9434
        42.400          24.0004
 122041516.793 7  95097275.08445  23223730.691                    23223728.5944
        47.900          32.7004
 108490535.795 8  84538099.44546  20645050.768                    20645047.7554
        51.000          40.6004
 127370942.678 6  99250081.12143  24237886.223                    24237882.8384
        37.900          18.3004
 122908587.624 6  95772972.52844  23388713.412                    23388717.2064
        41.300          29.4004
 125037121.582 7  97431500.00144  23793785.624                    23793787.3764
        45.800          29.4004
 106204300.547 8  82756612.12847  20210002.847                    20210002.6764
        51.200          44.0004
 125629666.961 7  97893242.34344  23906524.771                    23906523.9704
        42.900          24.7004
 15  7  8  9 14 30.0000000  0  8G25G17G12G02G06G15G24G14
 122973450.015 7  95823488.47744  23401062.639                    23401064.0154
        43.800          25.0004
 122082936.419 7  95129550.10245  23231612.741                    23231610.1854
        47.600          32.3004
 108470858.196 8  84522766.26346  20641306.250                    20641303.5664
        51.200          40.6004
 127328322.863 6  99216870.90742  24229775.730                    24229773.7294
        38.300          17.4004
 122878281.009 6  95749357.03545  23382946.470                    23382950.2254
        41.800          31.1004
 125088835.584 7  97471796.56044  23803626.729                    23803628.0644
        45.600          29.7004
 106204414.656 8  82756701.04347  20210024.485                    20210024.3094
        51.300          44.5004
 125591779.442 7  97863719.64043  23899314.313                    23899313.7354
        42.500          22.8004
 15  7  8  9 14 45.0000000  0  8G25G17G12G02G06G15G24G14
 122930321.495 7  95789881.88444  23392855.912                    23392856.5174
        44.300          26.6004
 122124428.012 7  95161881.19745  23239508.034                    23239505.6984
        46.700          31.6004
 108451263.182 8  84507497.43646  20637577.323                    20637574.7214
        51.100          40.9004
 127285721.399 6  99183674.98242  24221669.543                    24221666.3754
        37.600          16.9004
 122848075.170 7  95725820.08145  23377198.589                    23377201.9854
        42.200          31.0004
 125140575.933 7  97512113.65544  23813472.381                    23813473.8804
        45.200          29.6004
 106204645.688 8  82756881.06347  20210068.761                    20210068.3664
        51.500          43.7004
 125553989.616 7  97834273.04644  23892123.512                    23892122.2774
        42.200          24.8004
 15  7  8  9 15  0.0000000  0  8G25G17G12G02G06G15G24G14
 122887230.365 7  95756304.43444  23384656.456                    23384657.4794
        44.100          26.9004
 122165990.971 7  95194267.89445  23247416.483                    23247415.2724
        46.000          30.6004
 108431750.637 8  84492292.87146  20633864.359                    20633861.6414
        51.800          41.2004
 127243138.494 6  99150493.57942  24213564.596                    24213564.0354
        36.400          15.6004
 122817970.169 6  95702361.69345  23371469.818                    23371473.2404
        41.200          30.5004
 125192342.182 7  97552450.92844  23823322.705                    23823324.8654
        44.900          28.4004
 106204993.546 8  82757152.12347  20210134.917                    20210134.6014
        51.400          43.5004
 125516297.628 7  97804902.68644  23884950.457                    23884949.4614
        42.400          25.1004
 15  7  8  9 15 15.0000000  0  8G25G17G12G02G06G15G24G14
 122844176.000 7  95722755.62044  23376463.043                    23376464.1884
        43.400          25.5004
 122207624.375 7  95226709.48345  23255339.118                    23255337.8784
        45.800          30.4004
 108412319.672 8  84477151.87446  20630166.945                    20630163.8214
        51.500          41.7004
 127200573.892 6  99117326.39442  24205465.768                    24205463.7814
        36.200          16.9004
 122787965.621 7  95678981.60045  23365759.810                    23365763.4764
        42.700          30.6004
 125244133.220 7  97592807.52444  23833178.756                    23833180.5424
        44.900          29.0004
 106205457.444 8  82757513.60547  20210223.252                    20210223.0464
        51.100          43.7004
 125478703.074 7  97775608.28543  23877797.211                    23877795.7184
        43.000          23.8004
 15  7  8  9 15 30.0000000  0  8G25G17G12G02G06G15G24G14
 122801159.007 7  95689235.93044  23368277.251                    23368278.9724
        43.100          25.1004
 122249328.618 7  95259206.26744  23263275.401                    23263274.2894
        45.700          29.6004
 108392970.988 8  84462074.99746  20626484.865                    20626481.9794
        51.700          41.3004
 127158028.387 5  99084174.10642  24197368.096                    24197367.0864
        34.700          16.3004
 122758062.534 7  95655680.55045  23360069.928                    23360072.8274
        42.300          30.6004
 125295949.333 7  97633183.65144  23843039.218                    23843040.2154
        45.200          27.8004
