     2.11           OBSERVATION DATA    G (GPS)             RINEX VERSION / TYPE
teqc  2015Jun23                         20151003 10:10:34UTCPGM / RUN BY / DATE
Linux2.6.32-279.el6.x86_64|x86_64|gcc|Win64-MinGW64|=       COMMENT
BIT 2 OF LLI FLAGS DATA COLLECTED UNDER A/S CONDITION       COMMENT
-Unknown-                                                   MARKER NAME
-Unknown-           -Unknown-                               OBSERVER / AGENCY
-Unknown-           -Unknown-           -Unknown-           REC # / TYPE / VERS
-Unknown-           -Unknown-                               ANT # / TYPE
        0.0000        0.0000        0.0000                  APPROX POSITION XYZ
        0.0000        0.0000        0.0000                  ANTENNA: DELTA H/E/N
     1     1                                                WAVELENGTH FACT L1/2
     7    L1    L2    C1    P1    P2    S1    S2            # / TYPES OF OBSERV
 SNR is mapped to RINEX snr flag value [0-9]                COMMENT
  L1 & L2: min(max(int(snr_dBHz/6), 0), 9)                  COMMENT
  2015     7    10     3     0    0.0000000     GPS         TIME OF FIRST OBS
                                                            END OF HEADER
 15  7 10  3  0  0.0000000  0 11G07G09G28G30G05G06G16G02G23G10G13
 107150741.126 8  83494093.38347  20390093.906                    20390088.7024
        48.900          43.0004
 114582564.654 8  89285148.21146  21804323.172                    21804321.5754
        48.100          37.8004
 125442957.992 7  97747760.91344  23870996.520                    23870992.8474
        43.200          24.5004
 107857791.274 8  84045060.16247  20524640.731                    20524638.6994
        52.200          43.5004
 115901189.811 7  90312606.40946  22055256.679                    22055253.2094
        46.100          38.2004
 130188319.928 6 101445463.52643  24774007.144                    24774008.8124
        39.400          20.9004
 131969636.365 6 102833456.99342  25112991.889                    25112990.9414
        37.000          17.8004
 122763611.685 7  95659941.68744  23361135.771                    23361129.9614
        42.600          24.7004
 128722947.888 5 100303596.51942  24495156.228                    24495153.9844
        35.100          16.9004
 109108099.128 7  85019298.42746  20762574.833                    20762571.0194
        47.500          40.0004
 128762434.691 6 100334317.08543  24502673.097                    24502668.3334
        40.200          21.3004
 15  7 10  3  0 15.0000000  0 11G07G09G28G30G05G06G16G02G23G10G13
 107163029.054 8  83503668.38247  20392432.276                    20392427.4114
        49.600          43.1004
 114615236.410 8  89310606.69346  21810540.682                    21810538.6894
        48.500          37.1004
 125391415.125 7  97707597.64344  23861187.945                    23861184.4334
        43.000          24.4004
 107838799.711 8  84030261.53447  20521026.795                    20521024.3084
        52.500          43.3004
 115867560.571 7  90286401.81846  22048857.520                    22048853.9454
        46.200          37.4004
 130237534.248 6 101483812.31043  24783373.138                    24783373.4944
        38.600          20.1004
 132016827.318 6 102870229.12742  25121973.242                    25121971.1434
        38.400          17.8004
 122792464.128 7  95682424.10544  23366626.432                    23366620.4924
        43.300          26.1004
 128767668.166 5 100338443.44342  24503666.297                    24503663.7164
        35.100          16.3004
 109135611.014 8  85040736.25246  20767809.929                    20767806.4244
        48.100          39.7004
 128715880.999 6 100298041.53943  24493814.218                    24493810.2824
        40.200          20.6004
 15  7 10  3  0 30.0000000  0 11G07G09G28G30G05G06G16G02G23G10G13
 107175418.821 8  83513322.73147  20394789.860                    20394784.9304
        49.200          43.5004
 114647967.629 8  89336111.51446  21816768.878                    21816767.2644
        48.900          37.7004
 125339895.278 7  97667452.31544  23851384.800                    23851380.4284
        42.500          24.2004
 107819921.630 8  84015551.33247  20517434.659                    20517432.1054
        51.500          43.0004
 115834035.595 7  90260278.44846  22042477.976                    22042474.5184
        47.200          37.8004
 130286746.822 6 101522159.76243  24792736.815                    24792739.0714
        38.200          20.9004
 132064099.011 6 102907064.11643  25130967.676                    25130967.2784
        38.200          19.0004
 122821406.499 7  95704976.59344  23372133.772                    23372128.4944
        42.400          25.4004
 128812416.145 5 100373311.87442  24512181.665                    24512178.5134
        34.700          16.9004
 109163249.507 8  85062272.73046  20773069.785                    20773065.6324
        48.100          39.3004
 128669334.368 6 100261771.47743  24484956.026                    24484951.9574
        38.900          19.9004
 15  7 10  3  0 45.0000000  0 11G07G09G28G30G05G06G16G02G23G10G13
 107187910.071 8  83523056.15847  20397166.887                    20397162.1014
        49.600          43.1004
 114680758.094 8  89361662.49246  21823008.750                    21823007.2364
        49.100          37.8004
 125288398.478 7  97627324.95243  23841585.229                    23841581.4234
        42.800          22.8004
 107801156.892 8  84000929.45447  20513863.589                    20513861.3654
        51.300          43.3004
 115800615.079 7  90234236.48546  22036118.365                    22036113.8224
        46.500          38.0004
 130335957.347 6 101560505.54643  24802102.209                    24802103.0944
        38.300          21.1004
 132111451.089 6 102943961.81542  25139978.170                    25139977.2224
        39.200          17.8004
 122850438.314 7  95727598.77244  23377658.844                    23377652.9174
        43.500          26.6004
 128857191.377 5 100408201.61742  24520702.975                    24520698.8794
        34.800          17.4004
 109191014.180 8  85083907.52346  20778352.551                    20778349.0904
        49.500          40.5004
 128622794.587 6 100225506.74443  24476099.828                    24476095.1464
        38.300          20.4004
 15  7 10  3  1  0.0000000  0 11G07G09G28G30G05G06G16G02G23G10G13
 107200502.808 8  83532868.66947  20399563.195                    20399558.8544
        48.200          43.4004
 114713607.940 8  89387259.75546  21829260.061                    21829258.2354
        48.300          36.8004
 125236925.389 7  97587216.06244  23831789.974                    23831786.4024
        43.200          24.7004
 107782505.662 8  83986396.02647  20510314.261                    20510311.9854
        51.500          43.1004
 115767299.375 7  90208276.18346  22029778.214                    22029774.4094
        46.300          37.5004
 130385165.548 6 101598849.55743  24811466.742                    24811466.7204
        40.600          21.1004
 132158883.394 6 102980922.00842  25149005.639                    25149003.2254
        37.100          17.4004
 122879559.707 7  95750290.74544  23383200.780                    23383194.4494
        43.600          26.8004
 128901993.777 6 100443112.52643  24529227.542                    24529224.8384
        36.200          18.3004
 109218905.175 7  85105640.75546  20783660.748                    20783656.9554
        47.500          40.6004
 128576261.963 6 100189247.60143  24467244.549                    24467240.5554
        36.800          20.4004
 15  7 10  3  1 15.0000000  0 11G07G09G28G30G05G06G16G02G23G10G13
 107213197.354 8  83542760.50947  20401979.018                    20401974.6554
        49.300          43.6004
 114746517.474 8  89412903.51746  21835522.304                    21835520.7584
        48.100          37.3004
 125185476.557 7  97547126.08043  23822000.411                    23821996.2964
        43.600          23.9004
 107763968.360 8  83971951.37447  20506786.761                    20506784.6944
        51.300          42.5004
 115734089.253 7  90182398.17246  22023458.764                    22023455.2114
        45.800          38.1004
 130434371.390 6 101637191.78543  24820829.999                    24820830.5404
        41.400          21.8004
 132206395.757 6 103017944.56242  25158047.022                    25158044.2704
        40.000          16.9004
 122908770.319 7  95773052.23644  23388759.261                    23388752.6844
        42.400          26.7004
 128946823.817 6 100478044.91343  24537758.390                    24537755.8654
        37.500          19.0004
 109246922.534 8  85127472.45046  20788991.915                    20788988.3564
        48.900          40.3004
 128529736.904 6 100152994.37043  24458390.735                    24458386.6964
        36.800          19.0004
 15  7 10  3  1 30.0000000  0 11G07G09G28G30G05G06G16G02G23G10G13
 107225992.398 8  83552730.66647  20404413.541                    20404409.3734
        48.600          43.3004
 114779485.713 8  89438593.01346  21841795.720                    21841794.4104
        49.100          37.5004
 125134051.493 7  97507054.61843  23812214.449                    23812210.4644
        43.900          23.5004
 107745544.084 8  83957594.79147  20503280.721                    20503278.2184
        50.500          42.7004
 115700983.945 7  90156601.84846  22017159.224                    22017155.5474
        46.000          37.6004
 130483573.639 6 101675531.14643  24830192.255                    24830193.2534
        38.600          21.8004
 132253986.985 6 103055028.53842  25167102.983                    25167101.0294
        38.300          17.8004
 122938068.869 7  95795882.26644  23394335.099                    23394328.6094
        43.100          27.0004
 128991680.547 6 100512998.14443  24546294.000                    24546291.9434
        36.500          18.6004
 109275065.223 8  85149401.79746  20794347.597                    20794343.7904
        48.200          39.7004
 128483218.527 6 100116746.30043  24449538.482                    24449533.9804
        37.600          19.3004
 15  7 10  3  1 45.0000000  0 11G07G09G28G30G05G06G16G02G23G10G13
 107238889.111 8  83562780.04747  20406867.719                    20406863.6064
        48.500          43.5004
 114812513.774 8  89464329.14046  21848081.756                    21848079.5844
        49.900          37.7004
 125082651.714 7  97467002.86543  23802433.187                    23802429.2234
        43.200          23.0004
 107727234.063 8  83943327.23747  20499796.207                    20499794.6194
        51.300          43.2004
 115667985.001 7  90130888.38946  22010879.716                    22010875.7134
        47.200          38.5004
 130532773.093 6 101713868.34543  24839554.668                    24839555.8854
        39.400          21.5004
 132301658.042 6 103092174.76542  25176174.489                    25176172.2244
        38.300          16.3004
 122967456.261 7  95818781.53144  23399926.739                    23399920.7104
        43.800          26.6004
 129036564.980 6 100547972.93943  24554835.787                    24554832.9054
        38.400          19.9004
 109303334.295 8  85171429.63046  20799726.955                    20799723.4194
        48.200          40.1004
 128436708.089 6 100080504.44243  24440688.840                    24440683.0724
        37.900          20.6004
 15  7 10  3  2  0.0000000  0 11G07G09G28G30G05G06G16G02G23G10G13
 107251886.245 8  83572907.67347  20409341.177                    20409336.9244
        48.500          43.3004
 114845600.607 8  89490111.05846  21854377.510                    21854375.6094
        49.500          38.0004
 125031276.678 7  97426970.38443  23792656.217                    23792652.5804
        44.000          23.6004
 107709037.279 8  83929147.93347  20496333.741                    20496332.0024
        51.500          43.9004
 115635091.752 7  90105257.26146  22004620.188                    22004616.2464
        47.000          38.2004
 130581968.394 6 101752202.29344  24848917.106                    24848917.7054
        40.400          26.2004
 132349407.454 6 103129382.02342  25185260.707                    25185259.0164
        38.600          17.4004
 122996931.218 7  95841749.01144  23405535.732                    23405529.9174
        44.900          28.4004
 129081476.309 6 100582968.63243  24563382.400                    24563380.0274
        38.700          20.9004
 109331728.531 8  85193555.00146  20805130.464                    20805126.5324
        48.800          40.0004
 128390204.775 6 100044268.16143  24431839.294                    24431833.8974
        39.500          20.1004
 15  7 10  3  2 15.0000000  0 11G07G09G28G30G05G06G16G02G23G10G13
 107264984.446 8  83583114.04647  20411833.595                    20411829.3944
        48.900          43.3004
 114878746.942 8  89515939.34546  21860684.970                    21860683.4144
        48.600          37.7004
 124979927.284 7  97386957.87344  23782884.865                    23782881.6504
        43.600          24.9004
 107690954.555 8  83915057.50047  20492892.461                    20492890.7884
        52.000          43.1004
 115602305.211 7  90079709.30646  21998381.188                    21998376.8984
        46.500          37.9004
 130631160.009 6 101790533.36343  24858278.400                    24858279.1574
        40.700          22.2004
 132397235.626 6 103166650.65742  25194362.084                    25194360.3094
        39.000          16.3004
 123026494.290 7  95864785.15644  23411161.883                    23411155.9404
        43.700          27.4004
 129126415.005 6 100617985.74843  24571934.677                    24571931.6614
        38.500          20.1004
 109360248.608 8  85215778.42446  20810557.422                    20810553.4114
        48.600          39.7004
 128343709.545 6 100008038.09643  24422991.162                    24422985.9564
        38.600          18.6004
 15  7 10  3  2 30.0000000  0 11G07G09G28G30G05G06G16G02G23G10G13
 107278183.015 8  83593398.63947  20414345.258                    20414340.8724
        49.000          43.2004
 114911952.143 8  89541813.50046  21867003.477                    21867002.3924
        48.200          37.8004
 124928603.334 7  97346965.19543  23773118.240                    23773115.4494
        42.100          22.8004
 107672985.296 8  83901055.47947  20489473.356                    20489471.0794
        52.200          42.9004
 115569624.955 7  90054244.18046  21992161.864                    21992158.2334
        46.000          37.6004
 130680346.893 6 101828860.74644  24867637.370                    24867639.3754
        39.700          24.5004
 132445141.511 6 103203979.88142  25203477.752                    25203476.4154
        38.500          16.3004
 123056144.443 7  95887889.12944  23416803.706                    23416797.9164
        43.700          27.7004
 129171380.651 6 100653023.80643  24580491.216                    24580488.1254
        38.300          22.0004
 109388893.668 7  85238099.23846  20816008.200                    20816004.3054
        47.900          39.7004
 128297221.748 6  99971813.88843  24414144.072                    24414139.6774
        38.900          18.6004
 15  7 10  3  2 45.0000000  0 11G07G09G28G30G05G06G16G02G23G10G13
 107291482.609 8  83603761.94047  20416876.085                    20416871.4924
        48.500          43.1004
 114945216.937 7  89567734.08246  21873333.670                    21873332.7374
        47.900          37.3004
 124877305.899 7  97306993.19843  23763356.253                    23763354.1264
        42.100          23.9004
 107655130.359 8  83887142.53247  20486075.393                    20486073.3104
        51.200          42.9004
 115537052.084 7  90028862.73446  21985963.672                    21985959.5494
        45.700          37.6004
 130729529.491 6 101867184.84643  24876997.067                    24876997.6214
        40.300          22.3004
 132493125.630 6 103241370.09142  25212610.180                    25212607.0764
        40.400          15.6004
 123085882.173 7  95911061.37344  23422462.416                    23422457.0144
        42.900          26.7004
 129216373.732 6 100688083.27543  24589053.434                    24589050.2214
        38.600          22.6004
 109417664.352 8  85260517.93246  20821483.354                    20821479.2204
        48.200          40.2004
 128250742.282 6  99935596.15043  24405299.646                    24405295.3154
        38.700          19.6004
 15  7 10  3  3  0.0000000  0 11G07G09G28G30G05G06G16G02G23G10G13
 107304881.596 8  83614202.69947  20419425.739                    20419421.4724
        48.500          42.9004
 114978539.916 7  89593700.01746  21879675.438                    21879674.0154
        47.800          37.1004
 124826034.192 7  97267041.24144  23753600.022                    23753597.6634
        42.600          24.4004
 107637388.370 8  83873317.59947  20482699.203                    20482697.1664
        51.700          43.6004
 115504585.563 7  90003564.14946  21979786.118                    21979782.3024
        46.800          37.9004
 130778706.192 6 101905504.29443  24886355.360                    24886355.6094
        39.500          22.5004
 132541186.266 6 103278819.86142  25221754.993                    25221753.6074
        38.700          16.9004
 123115705.851 6  95934300.59144  23428137.549                    23428132.0264
        41.900          27.2004
 129261392.831 6 100723163.06243  24597619.895                    24597616.7774
        38.600          22.0004
 109446559.093 7  85283033.30346  20826982.104                    20826977.4814
        47.300          40.1004
 128204269.681 6  99899383.74543  24396456.107                    24396451.6944
        39.000          20.6004
 15  7 10  3  3 15.0000000  0 11G07G09G28G30G05G06G16G02G23G10G13
 107318380.651 8  83624721.43347  20421994.985                    20421990.4394
        48.700          43.3004
 115011921.909 8  89619711.92746  21886027.430                    21886025.6664
        48.600          36.9004
 124774789.402 7  97227110.23743  23743848.511                    23743845.4184
        43.000          22.9004
 107619760.257 8  83859581.39947  20479344.905                    20479342.9064
        51.300          43.8004
 115472226.696 7  89978349.43846  21973628.362                    21973624.0044
        47.200          38.3004
 130827877.395 6 101943819.48844  24895712.191                    24895712.9384
        40.700          24.3004
 132589323.908 6 103316329.60242  25230915.238                    25230914.3294
        39.200          16.9004
 123145615.874 7  95957607.08244  23433828.923                    23433823.5484
        43.100          27.1004
 129306438.667 6 100758263.65743  24606191.512                    24606188.6284
        37.100          21.5004
 109475578.476 7  85305645.80246  20832503.766                    20832499.7334
        47.100          39.4004
 128157804.891 6  99863177.41743  24387615.117                    24387610.6594
        40.400          20.6004
 15  7 10  3  3 30.0000000  0 11G07G09G28G30G05G06G16G02G23G10G13
 107331980.093 8  83635318.39147  20424582.554                    20424578.0454
        48.200          43.4004
 115045363.215 7  89645770.06446  21892391.016                    21892388.6364
        47.000          36.2004
 124723572.186 7  97187200.74443  23734101.677                    23734099.7964
        43.200          23.5004
 107602246.352 8  83845934.19547  20476012.228                    20476009.7204
        51.300          43.1004
 115439975.966 7  89953218.98946  21967491.010                    21967486.7194
        46.500          38.4004
 130877043.111 6 101982130.37744  24905068.306                    24905069.4124
        38.000          24.0004
 132637538.519 6 103353899.41442  25240091.089                    25240089.3274
        39.200          17.4004
 123175612.401 7  95980980.98744  23439537.364                    23439531.2384
        44.100          26.8004
 129351511.694 6 100793385.40443  24614769.079                    24614766.3974
        37.700          22.0004
 109504722.743 7  85328355.60246  20838049.810                    20838046.0374
        46.800          39.7004
 128111348.761 6  99826977.85543  24378774.005                    24378770.6564
        40.400          21.8004
 15  7 10  3  3 45.0000000  0 11G07G09G28G30G05G06G16G02G23G10G13
 107345679.368 8  83645993.14147  20427189.698                    20427185.0964
        49.100          43.6004
 115078863.541 8  89671874.18545  21898766.264                    21898764.0994
        48.200          35.8004
 124672382.686 7  97147312.82144  23724361.050                    23724358.6374
        43.600          24.7004
 107584846.494 8  83832375.85847  20472700.958                    20472698.9714
        50.800          43.3004
 115407833.385 7  89928172.82146  21961374.282                    21961370.4004
        46.400          37.6004
 130926202.870 6 102020436.62543  24914422.794                    24914423.8824
        39.400          21.7004
 132685829.642 6 103391528.79242  25249280.450                    25249278.8174
        36.900          16.3004
 123205694.808 7  96004421.80544  23445262.462                    23445255.2414
        44.900          27.4004
 129396611.628 6 100828528.09643  24623352.234                    24623348.7674
        37.900          21.5004
 109533991.490 8  85351162.39746  20843619.569                    20843616.0574
        48.900          40.1004
 128064900.917 6  99790784.76543  24369936.329                    24369931.2204
        40.500          21.7004
 15  7 10  3  4  0.0000000  0 11G07G09G28G30G05G06G16G02G23G10G13
 107359478.285 8  83656745.52747  20429815.311                    20429811.1704
        48.400          43.3004
 115112422.685 7  89698024.14146  21905152.146                    21905149.9924
        47.700          36.4004
 124621221.051 7  97107446.62543  23714625.038                    23714622.7794
        43.400          23.9004
 107567560.509 8  83818906.25547  20469411.631                    20469409.7264
        50.600          43.5004
 115375799.110 7  89903211.05946  21955278.522                    21955274.2114
        46.000          37.7004
 130975356.128 6 102058737.82643  24923776.207                    24923777.1784
        40.500          21.5004
 132734196.650 6 103429217.28342  25258483.824                    25258482.9114
        37.900          17.4004
 123235862.638 7  96027929.17844  23451003.183                    23450995.8774
        43.800          27.3004
 129441738.197 6 100863691.58943  24631938.483                    24631936.0964
        36.400          21.1004
 109563384.392 7  85374065.93946  20849212.853                    20849209.1544
        47.500          40.4004
 128018461.251 6  99754598.07043  24361098.995                    24361095.2524
        39.100          21.3004
 15  7 10  3  4 15.0000000  0 11G07G09G28G30G05G06G16G02G23G10G13
 107373376.197 8  83667575.05847  20432460.101                    20432455.9554
        48.100          43.1004
 115146040.094 7  89724219.50446  21911549.480                    21911548.0334
        47.600          36.8004
 124570087.157 7  97067602.04243  23704894.410                    23704891.4514
        42.700          22.6004
 107550387.929 8  83805525.02347  20466143.698                    20466141.2974
        50.200          43.3004
 115343873.065 8  89878333.63746  21949203.353                    21949199.1814
        48.100          39.3004
 131024501.868 6 102097033.22343  24933129.261                    24933129.1174
        41.700          22.3004
 132782638.778 6 103466964.30542  25267702.167                    25267701.4374
        37.500          15.6004
 123266115.026 7  96051502.46144  23456759.933                    23456753.9904
        44.300          26.5004
 129486891.066 5 100898875.54643  24640531.542                    24640527.9094
        35.800          21.1004
 109592900.725 8  85397065.65646  20854829.594                    20854826.3884
        48.100          40.3004
 127972029.322 6  99718417.38343  24352263.184                    24352259.8864
        38.600          21.1004
 15  7 10  3  4 30.0000000  0 10G07G09G28G30G05G06G02G23G10G13
 107387370.664 8  83678479.82147  20435123.337                    20435119.1834
        48.300          42.5004
 115179713.503 8  89750458.49046  21917957.258                    21917956.0444
        48.200          36.7004
 124518979.150 7  97027777.61743  23695168.788                    23695166.5004
        42.500          22.8004
 107533326.584 8  83792230.46847  20462896.965                    20462895.1864
        49.800          43.4004
 115312053.130 8  89853538.86846  21943148.090                    21943143.9954
        48.000          39.6004
 131073637.660 7 102135320.79743  24942479.345                    24942479.6124
        42.100          22.3004
 123296449.403 7  96075139.61644  23462532.837                    23462526.6704
        42.100          25.7004
 129532067.658 6 100934078.04143  24649128.200                    24649124.8684
        36.200          22.5004
 109622538.200 7  85420159.77746  20860469.694                    20860465.9664
        47.600          40.8004
 127925602.890 6  99682240.97443  24343427.698                    24343425.4094
        37.600          21.8004
 15  7 10  3  4 45.0000000  0 10G07G09G28G30G05G06G02G23G10G13
 107401467.413 8  83689464.28147  20437805.217                    20437801.3234
        48.600          43.0004
 115213448.667 8  89776745.59846  21924376.846                    21924375.6394
        48.500          36.6004
 124467902.894 7  96987977.92844  23685449.468                    23685447.1394
        42.800          24.8004
 107516382.247 8  83779027.08347  20459672.691                    20459670.8044
        49.500          43.1004
 115280345.456 7  89828831.58546  21937114.647                    21937109.4804
        47.200          38.8004
 131122768.969 6 102173604.88143  24951828.256                    24951829.4994
        38.600          21.7004
 123326871.288 6  96098844.97344  23468321.755                    23468316.4364
        41.900          26.9004
 129577273.684 6 100969303.40843  24657731.262                    24657727.2914
        37.800          21.7004
 109652302.363 8  85443352.61446  20866133.550                    20866129.8244
        49.000          40.2004
 127879188.107 6  99646073.65843  24334595.396                    24334593.1074
        37.400          22.5004
 15  7 10  3  5  0.0000000  0 10G07G09G28G30G05G06G02G23G10G13
 107415663.291 8  83700525.99847  20440506.984                    20440502.9814
        48.000          43.5004
 115247242.639 7  89803078.53446  21930807.477                    21930806.1294
        47.700          37.3004
 124416856.094 7  96948201.23044  23675735.278                    23675732.5524
        43.600          25.5004
 107499552.090 8  83765912.67447  20456470.341                    20456468.2824
        51.600          43.4004
 115248747.427 7  89804209.74446  21931101.594                    21931096.8054
        47.300          38.5004
 131171892.523 6 102211882.92143  24961175.724                    24961177.6404
        39.400          21.8004
 123357377.474 7  96122615.99644  23474126.493                    23474121.2744
        42.900          27.3004
 129622506.335 6 101004549.53343  24666339.689                    24666335.1214
        38.600          21.8004
 109682190.135 8  85466641.77946  20871821.224                    20871817.2454
        48.600          39.8004
 127832782.117 6  99609913.17643  24325764.933                    24325762.7524
        37.100          21.3004
 15  7 10  3  5 15.0000000  0 10G07G09G28G30G05G06G02G23G10G13
 107429958.595 7  83711665.17747  20443227.355                    20443223.6464
        47.900          43.7004
 115281095.815 7  89829457.58946  21937249.754                    21937248.1354
        47.100          36.2004
 124365839.632 7  96908448.14444  23666027.726                    23666024.4464
        43.600          25.6004
 107482836.523 8  83752887.54847  20453288.954                    20453287.3424
        51.400          43.2004
 115217259.782 7  89779673.91946  21925109.297                    21925105.3164
        45.800          37.8004
 131221008.422 6 102250154.97543  24970522.704                    24970523.8774
        38.700          21.8004
 123387968.035 6  96146452.76044  23479947.466                    23479941.9794
        41.700          27.0004
 129667765.808 6 101039816.57343  24674950.330                    24674948.2094
        38.300          22.3004
 109712201.693 8  85490027.39446  20877532.420                    20877528.1544
        49.600          40.3004
 127786385.393 6  99573759.93543  24316935.040                    24316933.3584
        36.600          22.3004
 15  7 10  3  5 30.0000000  0 10G07G09G28G30G05G06G02G23G10G13
 107444350.228 8  83722879.42747  20445966.039                    20445961.9644
        48.000          43.4004
 115315005.055 8  89855880.34746  21943702.391                    21943700.4764
        48.400          36.4004
 124314850.745 7  96868716.54244  23656324.571                    23656321.3014
        44.200          26.0004
 107466232.489 8  83739949.33947  20450129.412                    20450127.3734
        51.300          43.4004
 115185879.899 7  89755222.05546  21919138.064                    21919134.0414
        46.900          38.8004
 131270113.143 6 102288418.36843  24979867.522                    24979868.6524
        40.500          21.7004
 123418639.469 6  96170352.55944  23485783.624                    23485778.8664
        39.200          25.8004
 129713049.199 6 101075102.25843  24683568.821                    24683565.9074
        38.200          22.2004
 109742333.814 8  85513506.97046  20883266.129                    20883262.1384
        48.300          40.3004
 127739994.932 6  99537611.56543  24308107.636                    24308104.9954
        36.400          20.4004
 15  7 10  3  5 45.0000000  0 10G07G09G28G30G05G06G02G23G10G13
 107458840.194 8  83734170.30347  20448723.878                    20448719.4184
        48.200          42.9004
 115348972.674 8  89882348.58346  21950166.592                    21950164.6534
        48.100          37.3004
 124263892.183 7  96829008.55144  23646627.931                    23646624.2474
        43.800          25.6004
 107449742.400 8  83727099.92547  20446991.592                    20446989.6154
        50.800          43.9004
 115154610.107 7  89730855.97046  21913187.609                    21913184.0164
        47.400          39.3004
 131319208.751 6 102326674.65843  24989209.269                    24989210.6394
        40.000          21.5004
 123449393.910 6  96194317.03944  23491636.147                    23491631.2634
        37.500          25.8004
 129758358.786 6 101110408.33443  24692190.938                    24692188.7244
        38.800          22.3004
 109772588.674 8  85537082.16946  20889023.475                    20889019.7534
        48.500          39.8004
 127693613.249 6  99501470.04443  24299279.396                    24299277.3624
        37.500          20.9004
 15  7 10  3  6  0.0000000  0 10G07G09G28G30G05G06G02G23G10G13
 107473429.712 8  83745538.74547  20451499.856                    20451495.4004
        48.400          42.7004
 115383000.009 8  89908863.36946  21956641.838                    21956639.5494
        48.500          37.3004
 124212965.536 7  96789325.46244  23636936.924                    23636933.4474
        43.600          25.4004
 107433367.597 8  83714340.33547  20443875.598                    20443873.3544
        50.800          43.6004
 115123452.171 7  89706577.06446  21907258.648                    21907255.5364
        47.800          38.6004
 131368296.294 6 102364924.66643  24998550.806                    24998551.7094
        39.200          21.1004
 123480232.439 6  96218347.04244  23497504.534                    23497498.9944
        37.400          24.6004
 129803695.789 6 101145735.76644  24700818.347                    24700816.0484
        39.000          24.2004
 109802967.406 8  85560753.89546  20894804.078                    20894800.3424
        48.400          39.8004
 127647241.657 6  99465336.40143  24290457.008                    24290453.6464
        39.400          20.9004
 15  7 10  3  6 15.0000000  0 10G07G09G28G30G05G06G02G23G10G13
 107488117.700 8  83756983.92447  20454294.545                    20454290.2124
        48.200          43.0004
 115417086.018 8  89935423.87246  21963128.413                    21963125.9034
        49.200          36.6004
 124162070.179 7  96749666.76544  23627252.056                    23627247.8674
        42.900          24.8004
 107417107.222 8  83701669.89847  20440781.332                    20440779.0804
        51.000          43.5004
 115092405.408 7  89682384.79746  21901350.416                    21901346.4414
        46.500          38.2004
 131417374.494 6 102403167.40343  25007890.352                    25007891.7434
        39.400          21.3004
 123511153.720 6  96242441.52344  23503388.906                    23503383.5034
        40.700          24.0004
 129849059.258 6 101181083.83743  24709450.731                    24709447.6264
        39.200          22.6004
 109833468.925 7  85584521.30246  20900608.316                    20900604.4664
        47.700          39.8004
 127600879.505 6  99429210.04643  24281634.680                    24281630.9434
        39.200          21.5004
 15  7 10  3  6 30.0000000  0 10G07G09G28G30G05G06G02G23G10G13
 107502901.855 8  83768504.02447  20457107.779                    20457103.9744
        48.200          43.1004
 115451228.576 8  89962028.43046  21969625.116                    21969623.6024
        48.000          36.2004
 124111204.361 7  96710031.06943  23617572.047                    23617568.4104
        42.500          23.6004
 107400959.095 8  83689086.93147  20437708.328                    20437706.4214
        50.900          43.7004
 115061467.914 7  89658277.67046  21895463.016                    21895458.9014
        46.600          37.8004
 131466440.838 6 102441400.87043  25017226.701                    25017228.2064
        39.800          21.5004
 123542155.311 7  96266598.59044  23509288.641                    23509282.8724
        42.700          25.1004
 129894446.894 6 101216450.79143  24718088.203                    24718084.6874
        39.800          22.8004
 109864090.775 8  85608382.45546  20906435.295                    20906431.6294
        48.200          40.3004
 127554524.624 6  99393089.39043  24272813.787                    24272809.7544
        39.500          21.3004
 15  7 10  3  6 45.0000000  0 10G07G09G28G30G05G06G02G23G10G13
 107517783.066 7  83780099.75947  20459939.679                    20459935.6084
        47.900          43.3004
 115485428.609 8  89988677.76346  21976132.822                    21976131.5534
        48.000          36.1004
 124060369.466 7  96670419.47643  23607898.211                    23607895.0094
        42.000          23.8004
 107384924.260 8  83676592.24347  20434656.946                    20434654.9094
        51.000          43.5004
 115030641.117 7  89634256.78846  21889597.111                    21889592.0704
        46.500          37.9004
 131515495.954 6 102479625.58543  25026562.454                    25026563.6314
        39.200          20.9004
 123573237.792 7  96290818.67544  23515203.704                    23515197.3084
        43.400          26.0004
 129939859.879 6 101251837.45043  24726729.758                    24726726.2834
        39.400          23.2004
 109894833.829 7  85632338.07246  20912285.690                    20912282.3524
        47.800          40.5004
 127508178.176 6  99356975.27543  24263995.117                    24263990.4944
        40.300          21.1004
 15  7 10  3  7  0.0000000  0 10G07G09G28G30G05G06G02G23G10G13
 107532764.583 8  83791773.66147  20462790.548                    20462786.6594
        48.100          43.1004
 115519689.459 8  90015374.48946  21982652.933                    21982651.3734
        48.900          36.7004
 124009569.288 7  96630834.92044  23598231.401                    23598227.7484
        42.000          24.8004
 107369006.136 8  83664188.50347  20431628.246                    20431626.1754
        50.000          43.4004
 114999928.723 7  89610325.02946  21883753.300                    21883747.9274
        47.600          38.2004
 131564543.032 6 102517844.06543  25035894.897                    25035896.0854
        37.300          19.0004
 123604404.312 7  96315104.25944  23521134.678                    23521128.4804
        42.600          26.4004
 129985301.385 6 101287246.29443  24735376.852                    24735373.7874
        39.000          22.0004
 109925701.400 8  85656390.70246  20918159.628                    20918156.1504
        49.500          40.2004
 127461843.435 6  99320870.31843  24255178.065                    24255172.7224
        40.100          20.4004
 15  7 10  3  7 15.0000000  0 10G07G09G28G30G05G06G02G23G10G13
 107547842.080 8  83803522.34547  20465659.875                    20465656.1104
        48.300          42.9004
 115554006.915 8  90042115.33446  21989183.347                    21989181.4984
        48.200          36.8004
 123958799.937 7  96591274.39044  23588570.686                    23588566.7804
        43.000          25.4004
 107353200.508 8  83651872.43647  20428620.224                    20428618.1354
        50.100          43.3004
 114969326.599 7  89586479.19746  21877929.319                    21877925.0834
        46.300          38.3004
 131613577.348 6 102556052.58543  25045226.323                    25045226.8604
        37.700          18.3004
 123635650.262 6  96339451.74644  23527079.913                    23527074.3274
        41.700          26.3004
 130030767.165 6 101322674.09443  24744029.143                    24744024.4224
        39.000          21.8004
 109956688.956 8  85680536.83746  20924056.124                    20924052.8314
        48.100          39.5004
 127415516.437 6  99284771.38343  24246361.296                    24246357.2514
        40.500          21.1004
 15  7 10  3  7 30.0000000  0 10G07G09G28G30G05G06G02G23G10G13
 107563016.998 8  83815346.94647  20468547.754                    20468543.8384
        49.200          43.1004
 115588382.526 8  90068901.49846  21995724.962                    21995723.1924
        49.100          36.6004
 123908063.495 7  96551739.49544  23578915.694                    23578911.8044
        43.600          26.3004
 107337508.996 8  83639645.27747  20425634.150                    20425632.0764
        50.200          43.5004
 114938836.805 7  89562720.91946  21872126.945                    21872123.7084
        46.000          37.6004
 131662600.284 6 102594252.25743  25054554.969                    25054556.1044
        37.900          19.3004
 123666976.922 7  96363862.15044  23533040.649                    23533035.2814
        42.000          25.6004
 130076258.568 6 101358121.83743  24752685.662                    24752681.8324
        38.600          21.3004
 109987797.982 8  85704777.62446  20929976.384                    20929972.5224
        49.700          39.8004
 127369199.004 6  99248679.88843  24237547.450                    24237543.0554
        40.800          21.1004
 15  7 10  3  7 45.0000000  0 10G07G09G28G30G05G06G02G23G10G13
 107578289.378 8  83827247.49447  20471453.876                    20471449.8954
        48.300          43.2004
 115622816.548 8  90095733.16546  22002277.183                    22002275.9174
        48.300          36.5004
 123857360.559 7  96512230.72044  23569267.225                    23569263.6144
        42.700          25.3004
 107321931.927 8  83627507.30947  20422670.097                    20422668.2124
        49.500          43.5004
 114908459.799 7  89539050.54946  21866346.584                    21866343.0984
        46.000          37.7004
 131711611.824 6 102632443.04043  25063881.512                    25063882.9504
        37.400          19.6004
 123698384.368 7  96388335.47844  23539018.162                    23539012.1974
        43.100          27.1004
 130121776.063 6 101393589.90043  24761347.331                    24761343.7544
        37.900          21.1004
 110019028.534 8  85729113.10046  20935919.361                    20935915.1704
        49.100          39.5004
 127322891.350 6  99212596.00943  24228735.172                    24228730.9994
        39.500          19.9004
 15  7 10  3  8  0.0000000  0 10G07G09G28G30G05G06G02G23G10G13
 107593658.649 8  83839223.53347  20474378.558                    20474374.4784
        48.100          43.1004
 115657308.538 7  90122610.00546  22008841.037                    22008839.9294
        47.400          36.7004
 123806691.255 7  96472748.15844  23559625.114                    23559621.6684
        42.900          26.0004
 107306468.998 8  83615458.26747  20419727.390                    20419725.6934
        49.000          43.4004
 114878195.642 7  89515468.10246  21860587.771                    21860584.0964
        46.900          38.2004
 131760611.144 5 102670624.27843  25073205.577                    25073207.7054
        35.300          19.6004
 123729871.911 7  96412871.18744  23545009.087                    23545004.1894
        43.900          26.5004
 130167319.104 6 101429077.93343  24770013.944                    24770011.4524
        37.700          20.9004
 110050380.241 8  85753542.98846  20941885.637                    20941881.7674
        48.700          39.6004
 127276593.309 6  99176519.60843  24219925.871                    24219920.9424
        39.200          20.1004
 15  7 10  3  8 15.0000000  0 10G07G09G28G30G05G06G02G23G10G13
 107609123.939 8  83851274.39647  20477321.626                    20477317.4124
        48.200          43.1004
 115691857.780 8  90149531.43946  22015415.607                    22015413.7834
        48.900          36.9004
 123756054.812 7  96433291.20644  23549989.801                    23549985.6984
        43.400          25.5004
 107291119.448 8  83603497.57147  20416806.630                    20416804.6324
        49.100          43.4004
 114848043.760 7  89491973.11846  21854850.585                    21854845.1374
        47.300          38.6004
 131809597.344 6 102708795.26743  25082527.793                    25082529.2094
        36.800          20.9004
 123761438.475 7  96437468.48244  23551016.697                    23551010.8064
        44.600          26.0004
 130212887.068 6 101464585.28743  24778685.019                    24778682.5374
        37.000          19.3004
 110081852.042 8  85778066.45646  20947874.128                    20947870.6044
        48.600          39.0004
 127230304.178 6  99140450.17343  24211116.866                    24211112.4964
        39.400          20.1004
 15  7 10  3  8 30.0000000  0 10G07G09G28G30G05G06G02G23G10G13
 107624686.308 8  83863400.90647  20480283.107                    20480278.2684
        48.500          42.9004
 115726465.263 8  90176498.28546  22022001.672                    22021999.2564
        49.000          36.8004
 123705452.931 7  96393861.16144  23540360.194                    23540356.6694
        44.000          26.2004
 107275884.402 8  83591626.09947  20413907.398                    20413905.1684
        49.900          43.1004
 114818005.577 7  89468566.72446  21849133.856                    21849129.3174
        47.800          38.5004
 131858570.966 6 102746956.51643  25091847.677                    25091848.2164
        38.300          21.3004
 123793084.781 7  96462127.90844  23557038.381                    23557032.8144
        43.300          26.2004
 130258481.230 5 101500113.13943  24787358.313                    24787357.9764
        33.100          18.6004
 110113444.801 8  85802684.18246  20953886.203                    20953882.4994
        49.600          39.2004
 127184025.384 6  99104388.79143  24202311.024                    24202306.6744
        38.900          21.1004
 15  7 10  3  8 45.0000000  0 10G07G09G28G30G05G06G02G23G10G13
 107640348.396 8  83875605.11047  20483263.203                    20483258.8624
        48.400          42.9004
 115761133.775 8  90203512.68246  22028598.615                    22028596.0024
        48.700          36.6004
 123654888.844 7  96354460.58844  23530737.826                    23530734.4404
        44.400          26.4004
 107260766.631 8  83579846.01247  20411030.519                    20411028.5734
        50.000          43.6004
 114788084.075 7  89445251.27146  21843439.949                    21843435.3964
        46.600          38.2004
 131907534.647 6 102785110.01743  25101165.374                    25101165.8614
        38.300          19.9004
 123824813.146 7  96486851.30244  23563076.763                    23563070.5504
        43.600          27.1004
 130304103.696 5 101535663.06042  24796042.360                    24796040.5374
        33.700          17.8004
 110145161.127 8  85827398.17746  20959921.340                    20959918.2094
        49.800          40.1004
 127137759.380 6  99068337.41143  24193506.323                    24193503.2194
        40.900          21.1004
 15  7 10  3  9  0.0000000  0 10G07G09G28G30G05G06G02G23G10G13
 107656106.372 8  83887884.03647  20486262.195                    20486257.4354
        48.400          43.4004
 115795859.366 8  90230571.56246  22035206.135                    22035204.6064
        48.600          36.0004
 123604358.980 7  96315086.67144  23521122.492                    23521118.7814
        44.700          26.2004
 107245762.330 8  83568154.33947  20408175.385                    20408173.3274
        50.300          43.3004
 114758275.773 7  89422024.02546  21837767.241                    21837763.6884
        45.800          38.0004
 131956484.057 6 102823252.41743  25110479.316                    25110480.7334
        36.600          19.0004
 123856619.333 7  96511635.32444  23569129.163                    23569123.3444
        42.600          27.0004
                 101571201.30952  24804727.072                    24804724.7654
        32.500          16.9004
 110176996.934 8  85852205.29246  20965979.790                    20965976.3314
        50.000          39.7004
 127091502.733 6  99032293.30443  24184703.961                    24184701.3914
        41.700          21.3004
 15  7 10  3  9 15.0000000  0 10G07G09G28G30G05G06G02G23G10G13
 107671955.401 8  83900233.91447  20489278.135                    20489273.9154
        48.100          43.1004
 115830637.741 8  90257671.55445  22041824.453                    22041822.5464
        48.000          35.3004
 123553859.350 7  96275736.29744  23511512.748                    23511508.8464
        46.300          25.8004
 107230867.175 8  83556547.72347  20405340.901                    20405338.8764
        50.200          43.7004
 114728576.595 7  89398881.82146  21832115.721                    21832112.4414
        46.300          38.6004
 132005414.730 6 102861380.18743  25119791.563                    25119791.2044
        38.100          18.3004
 123888499.128 7  96536476.70144  23575195.851                    23575189.8334
        43.400          26.6004
 130395380.529 5 101606786.24442  24813415.825                    24813415.4604
        30.700          16.9004
 110208947.701 8  85877101.97346  20972059.911                    20972055.9174
        49.800          39.9004
 127045251.084 7  98996253.09943  24175902.732                    24175899.7294
        42.300          22.2004
 15  7 10  3  9 30.0000000  0 10G07G09G28G30G05G06G02G23G10G13
 107687903.704 7  83912661.15947  20492312.769                    20492307.9964
        47.900          42.5004
 115865477.315 8  90284819.23745  22048454.380                    22048452.7854
        48.000          35.7004
 123503398.829 7  96236416.40244  23501910.787                    23501905.9824
        45.000          25.9004
 107216089.630 8  83545032.74847  20402528.883                    20402526.5004
        50.200          43.5004
 114698995.302 7  89375831.46046  21826486.914                    21826483.4614
        46.900          38.8004
 132054334.599 6 102899499.55443  25129100.215                    25129100.6644
        39.600          21.1004
 123920460.352 7  96561381.52644  23581277.772                    23581272.3054
        43.700          26.0004
 130441094.82915 101642395.65652  24822115.030                    24822111.1934
        33.300          17.4004
 110241021.756 8  85902094.72446  20978163.205                    20978159.2604
        49.500          39.7004
 126999013.115 7  98960223.54243  24167103.479                    24167100.5854
        43.200          21.8004
 15  7 10  3  9 45.0000000  0 10G07G09G28G30G05G06G02G23G10G13
 107703946.425 8  83925161.96047  20495366.002                    20495361.5204
        48.300          42.2004
 115900373.113 8  90312010.72745  22055094.886                    22055093.1674
        48.100          35.8004
 123452972.965 7  96197123.52944  23492314.708                    23492310.5934
        43.900          25.0004
 107201424.827 8  83533605.61447  20399738.093                    20399736.4804
        50.400          43.5004
 114669527.402 7  89352869.44846  21820879.727                    21820874.8584
        47.700          38.3004
 132103238.466 6 102937606.43643  25138406.457                    25138407.9884
        39.400          21.7004
 123952497.745 7  96586345.71344  23587374.470                    23587368.5454
        43.000          26.8004
 130486817.78715 101678026.51153  24830815.851                    24830812.6354
        34.400          18.6004
 110273213.977 8  85927179.56246  20984289.593                    20984285.5474
        50.000          39.6004
 126952783.990 7  98924200.87043  24158306.936                    24158303.4884
        43.000          22.2004
 15  7 10  3 10  0.0000000  0 10G07G09G28G30G05G06G02G23G10G13
 107720083.689 8  83937736.43147  20498436.822                    20498432.2664
        48.200          42.5004
 115935325.320 8  90339246.18345  22061745.901                    22061744.5524
        48.400          35.9004
 123402582.316 7  96157858.08244  23482725.571                    23482721.8074
        44.300          24.9004
 107186873.048 8  83522266.55647  20396969.645                    20396967.8384
        49.800          43.9004
 114640173.274 7  89329996.09046  21815293.365                    21815288.3524
        46.500          37.6004
 132152126.269 6 102975700.78343  25147708.873                    25147711.5234
        38.100          22.0004
 123984611.427 7  96611369.34244  23593485.527                    23593479.1184
        43.500          26.7004
 130532561.682 5 101713671.02042  24839518.676                    24839516.4494
        33.100          17.8004
 110305524.427 8  85952356.51946  20990437.989                    20990434.1744
        49.900          39.8004
 126906563.947 7  98888185.29243  24149511.040                    24149508.3254
        42.500          22.5004
 15  7 10  3 10 15.0000000  0 10G07G09G28G30G05G06G02G23G10G13
 107736313.016 8  83950382.65047  20501524.978                    20501520.2474
        48.300          42.9004
 115970331.636 8  90366523.80646  22068407.429                    22068405.5984
        48.700          36.6004
 123352224.772 7  96118618.44044  23473142.823                    23473138.6274
        44.100          25.3004
 107172431.971 8  83511013.76647  20394221.506                    20394219.5094
        50.000          43.9004
 114610930.897 7  89307209.82846  21809728.251                    21809723.7524
        46.900          37.4004
 132200995.400 6 103013780.58643  25157009.587                    25157010.4004
        39.200          20.1004
 124016798.581 7  96636450.22044  23599610.426                    23599604.2724
        43.800          24.0004
 130578327.350 5 101749332.41842  24848231.273                    24848226.5924
        35.200          16.9004
 110337950.604 8  85977623.66246  20996608.362                    20996604.8044
        49.900          39.7004
 126860351.018 7  98852175.23043  24140716.816                    24140714.1184
        42.900          22.5004
 15  7 10  3 10 30.0000000  0 10G07G09G28G30G05G06G02G23G10G13
 107752639.542 8  83963104.60447  20504631.860                    20504627.4174
        48.400          42.6004
 116005397.388 8  90393847.73446  22075080.261                    22075078.5784
        48.300          36.3004
 123301906.120 7  96079409.10244  23463567.526                    23463563.4034
        43.600          25.7004
 107158106.978 8  83499851.42947  20391495.160                    20391493.7624
        50.500          43.7004
 114581805.910 7  89284515.03546  21804186.356                    21804183.0154
        47.500          39.0004
 132249850.912 6 103051849.80443  25166305.803                    25166307.7524
        37.000          19.6004
 124049064.428 7  96661592.41944  23605751.175                    23605743.9364
        43.600          26.6004
 130624119.899 5 101785014.80143  24856943.007                    24856939.7384
        34.100          18.3004
 110370497.668 8  86002985.00146  21002801.442                    21002798.1764
        50.000          39.6004
 126814150.504 7  98816174.84743  24131925.591                    24131922.5374
        42.900          22.9004
 15  7 10  3 10 45.0000000  0 10G07G09G28G30G05G06G02G23G10G13
 107769061.844 8  83975901.19447  20507756.580                    20507752.6034
        48.400          42.8004
 116040521.254 7  90421216.93845  22081763.915                    22081762.2484
        47.600          35.6004
 123251625.543 7  96040229.42344  23453999.522                    23453995.3564
        45.200          25.6004
 107143896.814 8  83488778.56847  20388791.135                    20388789.2554
        50.100          44.0004
 114552797.332 7  89261910.94446  21798666.766                    21798663.4024
        47.400          39.5004
 132298691.203 6 103089907.12543  25175598.998                    25175602.2544
        36.800          18.6004
 124081407.237 7  96686794.56644  23611905.356                    23611899.1014
        43.600          26.0004
 130669938.128 5 101820717.24942  24865660.664                    24865658.8874
        33.500          17.8004
 110403164.152 8  86028439.37346  21009017.592                    21009014.4904
        49.600          39.8004
 126767961.081 7  98780183.09243  24123135.818                    24123132.8784
        43.200          22.5004
 15  7 10  3 11  0.0000000  0 10G07G09G28G30G05G06G02G23G10G13
 107785579.680 8  83988772.21847  20510899.733                    20510895.6954
        48.600          42.6004
 116075703.018 7  90448631.26045  22088458.863                    22088457.1264
        47.100          35.7004
 123201383.025 7  96001079.42244  23444438.974                    23444434.6304
        44.700          25.3004
 107129801.325 8  83477795.07547  20386108.689                    20386107.2484
        50.000          43.2004
 114523905.273 8  89239397.64746  21793169.115                    21793165.0814
        48.100          39.5004
 132347515.806 6 103127952.28143  25184890.108                    25184892.4074
        36.500          19.6004
 124113826.406 7  96712056.23344  23618074.584                    23618068.5864
        42.600          25.9004
 130715769.70115 101856439.42152  24874383.903                    24874382.8534
        31.600          16.9004
 110435949.699 8  86053986.54046  21015256.584                    21015253.4284
        49.600          39.5004
 126721782.900 7  98744200.12443  24114348.681                    24114344.4714
        43.300          22.2004
 15  7 10  3 11 15.0000000  0 10G07G09G28G30G05G06G02G23G10G13
 107802193.184 8  84001717.79247  20514061.317                    20514057.4034
        48.300          42.9004
 116110942.934 7  90476090.90345  22095164.407                    22095163.0934
        46.800          35.9004
 123151179.339 7  95961959.66644  23434885.072                    23434881.0834
        44.300          25.9004
 107115820.790 8  83466901.14447  20383448.147                    20383446.5754
        49.400          43.1004
 114495130.358 7  89216975.62746  21787692.769                    21787688.5974
        46.700          38.2004
 132396324.596 6 103165985.09242  25194178.711                    25194180.2474
        36.400          17.8004
 124146321.980 6  96737377.45544  23624258.138                    23624252.1214
        41.600          26.5004
 130761638.970 5 101892181.56542  24883115.480                    24883112.6254
        35.200          17.8004
 110468854.350 8  86079626.51146  21021518.087                    21021514.4824
        49.100          39.0004
 126675616.493 7  98708226.31943  24105562.878                    24105559.1174
        43.300          21.5004
 15  7 10  3 11 30.0000000  0 10G07G09G28G30G05G06G02G23G10G13
 107818899.625 8  84014735.78647  20517240.880                    20517236.6804
        48.800          42.9004
 116146238.440 8  90503593.86246  22101881.523                    22101879.6904
        48.700          36.6004
 123101012.468 7  95922868.60244  23425339.187                    23425334.4724
        45.000          24.9004
 107101952.730 8  83456094.85847  20380809.467                    20380807.6924
        49.500          42.4004
 114466470.336 8  89194643.14746  21782239.073                    21782234.2234
        48.100          37.7004
 132445114.827 5 103204003.49042  25203462.928                    25203464.8574
        35.400          16.9004
 124178891.253 6  96762756.06844  23630455.227                    23630450.5394
        41.500          26.2004
 130807531.335 5 101927941.75743  24891847.493                    24891844.2424
        35.400          19.3004
 110501875.403 7  86105357.18946  21027802.293                    21027798.2954
        47.700          39.4004
 126629459.304 7  98672259.69843  24096779.526                    24096774.9384
        43.000          21.7004
 15  7 10  3 11 45.0000000  0 10G07G09G28G30G05G06G02G23G10G13
 107835700.305 8  84027827.20447  20520437.514                    20520433.3734
        48.600          42.5004
 116181590.880 7  90531141.19246  22108609.092                    22108607.5264
        47.700          36.3004
 123050884.146 7  95883807.56044  23415799.738                    23415795.4164
        44.200          26.0004
 107088198.530 8  83445377.29447  20378192.049                    20378190.3084
        49.500          43.1004
 114437926.800 7  89172401.43246  21776807.613                    21776802.4224
        47.200          38.0004
 132493887.462 5 103242008.10643  25212744.166                    25212745.3514
        33.800          18.6004
 124211535.074 6  96788192.80544  23636667.464                    23636661.7304
        40.100          25.5004
 130853448.037 5 101963720.89742  24900585.724                    24900583.0284
        33.400          16.9004
 110535014.054 8  86131179.49946  21034108.238                    21034104.7254
        48.500          39.2004
